{
"type": "FeatureCollection",
"crs": { "type": "name", "properties": { "name": "urn:ogc:def:crs:OGC:1.3:CRS84" } },
"features": [
{ "type": "Feature", "properties": { "CityHun": "Alsósajó", "CityLoc": "Nižná Slaná", "CountryName": "Slovakia", "CountryCode": "SK", "Latitude": 48.725408, "Longitude": 20.415991 }, "geometry": { "type": "Point", "coordinates": [ 20.415991, 48.725408 ] } },
{ "type": "Feature", "properties": { "CityHun": "Bélkismaros", "CityLoc": "Stoineºti", "CountryName": "Romania", "CountryCode": "RO", "Latitude": 46.613021, "Longitude": 22.025031 }, "geometry": { "type": "Point", "coordinates": [ 22.025031, 46.613021 ] } },
{ "type": "Feature", "properties": { "CityHun": "Bélnagymaros", "CityLoc": "Mãrãuº", "CountryName": "Romania", "CountryCode": "RO", "Latitude": 46.594403, "Longitude": 22.034298 }, "geometry": { "type": "Point", "coordinates": [ 22.034298, 46.594403 ] } },
{ "type": "Feature", "properties": { "CityHun": "Bodrog", "CityLoc": "Bodrog", "CountryName": "Romania", "CountryCode": "RO", "Latitude": 46.731638, "Longitude": 23.766742 }, "geometry": { "type": "Point", "coordinates": [ 23.766742, 46.731638 ] } },
{ "type": "Feature", "properties": { "CityHun": "Bodrog", "CityLoc": "Bodrog", "CountryName": "Hungary", "CountryCode": "HU", "Latitude": 48.299361, "Longitude": 21.557656 }, "geometry": { "type": "Point", "coordinates": [ 21.557656, 48.299361 ] } },
{ "type": "Feature", "properties": { "CityHun": "Bodroghalom", "CityLoc": "Bodroghalom", "CountryName": "Hungary", "CountryCode": "HU", "Latitude": 48.303573, "Longitude": 21.704878 }, "geometry": { "type": "Point", "coordinates": [ 21.704878, 48.303573 ] } },
{ "type": "Feature", "properties": { "CityHun": "Bodrogkeresztúr", "CityLoc": "Bodrogkeresztúr", "CountryName": "Hungary", "CountryCode": "HU", "Latitude": 48.15876, "Longitude": 21.360658 }, "geometry": { "type": "Point", "coordinates": [ 21.360658, 48.15876 ] } },
{ "type": "Feature", "properties": { "CityHun": "Bodrogkisfalud", "CityLoc": "Bodrogkisfalud", "CountryName": "Hungary", "CountryCode": "HU", "Latitude": 48.172833, "Longitude": 21.357453 }, "geometry": { "type": "Point", "coordinates": [ 21.357453, 48.172833 ] } },
{ "type": "Feature", "properties": { "CityHun": "Bodrogmezõ", "CityLoc": "Po¾any", "CountryName": "Slovakia", "CountryCode": "SK", "Latitude": 48.469353, "Longitude": 21.993405 }, "geometry": { "type": "Point", "coordinates": [ 21.993405, 48.469353 ] } },
{ "type": "Feature", "properties": { "CityHun": "Bodrogolaszi", "CityLoc": "Bodrogolaszi", "CountryName": "Hungary", "CountryCode": "HU", "Latitude": 48.287651, "Longitude": 21.517628 }, "geometry": { "type": "Point", "coordinates": [ 21.517628, 48.287651 ] } },
{ "type": "Feature", "properties": { "CityHun": "Bodrogszentes", "CityLoc": "Svätuše", "CountryName": "Slovakia", "CountryCode": "SK", "Latitude": 48.430201, "Longitude": 21.921972 }, "geometry": { "type": "Point", "coordinates": [ 21.921972, 48.430201 ] } },
{ "type": "Feature", "properties": { "CityHun": "Bodrogszentmária", "CityLoc": "Sväta Maria", "CountryName": "Slovakia", "CountryCode": "SK", "Latitude": 48.704329, "Longitude": 20.673351 }, "geometry": { "type": "Point", "coordinates": [ 20.673351, 48.704329 ] } },
{ "type": "Feature", "properties": { "CityHun": "Bodrogszerdahely", "CityLoc": "Streda nad Bodrogom", "CountryName": "Slovakia", "CountryCode": "SK", "Latitude": 48.368091, "Longitude": 21.757509 }, "geometry": { "type": "Point", "coordinates": [ 21.757509, 48.368091 ] } },
{ "type": "Feature", "properties": { "CityHun": "Bodrogszög", "CityLoc": "Klín nad Bodrogom", "CountryName": "Slovakia", "CountryCode": "SK", "Latitude": 48.37678, "Longitude": 21.732513 }, "geometry": { "type": "Point", "coordinates": [ 21.732513, 48.37678 ] } },
{ "type": "Feature", "properties": { "CityHun": "Bodrogvécs", "CityLoc": "Veè", "CountryName": "Slovakia", "CountryCode": "SK", "Latitude": 48.407086, "Longitude": 21.844659 }, "geometry": { "type": "Point", "coordinates": [ 21.844659, 48.407086 ] } },
{ "type": "Feature", "properties": { "CityHun": "Drávacsány", "CityLoc": "Gornji Hrašæan", "CountryName": "Croatia", "CountryCode": "HR", "Latitude": 46.377018, "Longitude": 16.349361 }, "geometry": { "type": "Point", "coordinates": [ 16.349361, 46.377018 ] } },
{ "type": "Feature", "properties": { "CityHun": "Drávacsehi", "CityLoc": "Drávacsehi", "CountryName": "Hungary", "CountryCode": "HU", "Latitude": 45.811041, "Longitude": 18.166555 }, "geometry": { "type": "Point", "coordinates": [ 18.166555, 45.811041 ] } },
{ "type": "Feature", "properties": { "CityHun": "Drávacsepely", "CityLoc": "Drávacsepely", "CountryName": "Hungary", "CountryCode": "HU", "Latitude": 45.828459, "Longitude": 18.136619 }, "geometry": { "type": "Point", "coordinates": [ 18.136619, 45.828459 ] } },
{ "type": "Feature", "properties": { "CityHun": "Drávadiós", "CityLoc": "Orehovica", "CountryName": "Croatia", "CountryCode": "HR", "Latitude": 46.331552, "Longitude": 16.506794 }, "geometry": { "type": "Point", "coordinates": [ 16.506794, 46.331552 ] } },
{ "type": "Feature", "properties": { "CityHun": "Drávaegyház", "CityLoc": "Cirkovljan", "CountryName": "Croatia", "CountryCode": "HR", "Latitude": 46.342303, "Longitude": 16.646836 }, "geometry": { "type": "Point", "coordinates": [ 16.646836, 46.342303 ] } },
{ "type": "Feature", "properties": { "CityHun": "Drávafok", "CityLoc": "Drávafok", "CountryName": "Hungary", "CountryCode": "HU", "Latitude": 45.884981, "Longitude": 17.763702 }, "geometry": { "type": "Point", "coordinates": [ 17.763702, 45.884981 ] } },
{ "type": "Feature", "properties": { "CityHun": "Drávafüred", "CityLoc": "Oporovec", "CountryName": "Croatia", "CountryCode": "HR", "Latitude": 46.329982, "Longitude": 16.674622 }, "geometry": { "type": "Point", "coordinates": [ 16.674622, 46.329982 ] } },
{ "type": "Feature", "properties": { "CityHun": "Drávagárdony", "CityLoc": "Drávagárdony", "CountryName": "Hungary", "CountryCode": "HU", "Latitude": 45.944043, "Longitude": 17.60468 }, "geometry": { "type": "Point", "coordinates": [ 17.60468, 45.944043 ] } },
{ "type": "Feature", "properties": { "CityHun": "Drávaiványi", "CityLoc": "Drávaiványi", "CountryName": "Hungary", "CountryCode": "HU", "Latitude": 45.84676, "Longitude": 17.818134 }, "geometry": { "type": "Point", "coordinates": [ 17.818134, 45.84676 ] } },
{ "type": "Feature", "properties": { "CityHun": "Drávakeresztúr", "CityLoc": "Drávakeresztúr", "CountryName": "Hungary", "CountryCode": "HU", "Latitude": 45.839408, "Longitude": 17.758761 }, "geometry": { "type": "Point", "coordinates": [ 17.758761, 45.839408 ] } },
{ "type": "Feature", "properties": { "CityHun": "Drávamagyaród", "CityLoc": "Trnovec", "CountryName": "Croatia", "CountryCode": "HR", "Latitude": 46.382462, "Longitude": 16.311131 }, "geometry": { "type": "Point", "coordinates": [ 16.311131, 46.382462 ] } },
{ "type": "Feature", "properties": { "CityHun": "Drávanagyfalu", "CityLoc": "Strahoninec", "CountryName": "Croatia", "CountryCode": "HR", "Latitude": 46.372018, "Longitude": 16.415408 }, "geometry": { "type": "Point", "coordinates": [ 16.415408, 46.372018 ] } },
{ "type": "Feature", "properties": { "CityHun": "Drávaóhid", "CityLoc": "Pretetinec", "CountryName": "Croatia", "CountryCode": "HR", "Latitude": 46.392659, "Longitude": 16.369969 }, "geometry": { "type": "Point", "coordinates": [ 16.369969, 46.392659 ] } },
{ "type": "Feature", "properties": { "CityHun": "Drávaollár", "CityLoc": "Vularija", "CountryName": "Croatia", "CountryCode": "HR", "Latitude": 46.328968, "Longitude": 16.479081 }, "geometry": { "type": "Point", "coordinates": [ 16.479081, 46.328968 ] } },
{ "type": "Feature", "properties": { "CityHun": "Drávapalkonya", "CityLoc": "Drávapalkonya", "CountryName": "Hungary", "CountryCode": "HU", "Latitude": 45.803469, "Longitude": 18.179718 }, "geometry": { "type": "Point", "coordinates": [ 18.179718, 45.803469 ] } },
{ "type": "Feature", "properties": { "CityHun": "Drávapiski", "CityLoc": "Drávapiski", "CountryName": "Hungary", "CountryCode": "HU", "Latitude": 45.840022, "Longitude": 18.100571 }, "geometry": { "type": "Point", "coordinates": [ 18.100571, 45.840022 ] } },
{ "type": "Feature", "properties": { "CityHun": "Drávasiklós", "CityLoc": "Èukovec", "CountryName": "Croatia", "CountryCode": "HR", "Latitude": 46.346884, "Longitude": 16.707408 }, "geometry": { "type": "Point", "coordinates": [ 16.707408, 46.346884 ] } },
{ "type": "Feature", "properties": { "CityHun": "Drávaszabolcs", "CityLoc": "Drávaszabolcs", "CountryName": "Hungary", "CountryCode": "HU", "Latitude": 45.805976, "Longitude": 18.210737 }, "geometry": { "type": "Point", "coordinates": [ 18.210737, 45.805976 ] } },
{ "type": "Feature", "properties": { "CityHun": "Drávaszentistván", "CityLoc": "Štefanec", "CountryName": "Croatia", "CountryCode": "HR", "Latitude": 46.373491, "Longitude": 16.492169 }, "geometry": { "type": "Point", "coordinates": [ 16.492169, 46.373491 ] } },
{ "type": "Feature", "properties": { "CityHun": "Drávaszentiván", "CityLoc": "Ivanovec", "CountryName": "Croatia", "CountryCode": "HR", "Latitude": 46.369286, "Longitude": 16.478865 }, "geometry": { "type": "Point", "coordinates": [ 16.478865, 46.369286 ] } },
{ "type": "Feature", "properties": { "CityHun": "Drávaszentmihály", "CityLoc": "Mihovljan", "CountryName": "Croatia", "CountryCode": "HR", "Latitude": 46.404971, "Longitude": 16.446936 }, "geometry": { "type": "Point", "coordinates": [ 16.446936, 46.404971 ] } },
{ "type": "Feature", "properties": { "CityHun": "Drávaszerdahely", "CityLoc": "Drávaszerdahely", "CountryName": "Hungary", "CountryCode": "HU", "Latitude": 45.836338, "Longitude": 18.163582 }, "geometry": { "type": "Point", "coordinates": [ 18.163582, 45.836338 ] } },
{ "type": "Feature", "properties": { "CityHun": "Drávaszilas", "CityLoc": "Podbrest", "CountryName": "Croatia", "CountryCode": "HR", "Latitude": 46.330273, "Longitude": 16.545427 }, "geometry": { "type": "Point", "coordinates": [ 16.545427, 46.330273 ] } },
{ "type": "Feature", "properties": { "CityHun": "Drávasztára", "CityLoc": "Drávasztára", "CountryName": "Hungary", "CountryCode": "HU", "Latitude": 45.825622, "Longitude": 17.822729 }, "geometry": { "type": "Point", "coordinates": [ 17.822729, 45.825622 ] } },
{ "type": "Feature", "properties": { "CityHun": "Drávatamási", "CityLoc": "Drávatamási", "CountryName": "Hungary", "CountryCode": "HU", "Latitude": 45.939854, "Longitude": 17.571421 }, "geometry": { "type": "Point", "coordinates": [ 17.571421, 45.939854 ] } },
{ "type": "Feature", "properties": { "CityHun": "Drávavásárhely", "CityLoc": "Nedelišæe", "CountryName": "Croatia", "CountryCode": "HR", "Latitude": 46.37556, "Longitude": 16.383805 }, "geometry": { "type": "Point", "coordinates": [ 16.383805, 46.37556 ] } },
{ "type": "Feature", "properties": { "CityHun": "Dunaalmás", "CityLoc": "Dunaalmás", "CountryName": "Hungary", "CountryCode": "HU", "Latitude": 47.733437, "Longitude": 18.335125 }, "geometry": { "type": "Point", "coordinates": [ 18.335125, 47.733437 ] } },
{ "type": "Feature", "properties": { "CityHun": "Dunabogdány", "CityLoc": "Dunabogdány", "CountryName": "Hungary", "CountryCode": "HU", "Latitude": 47.794015, "Longitude": 19.035083 }, "geometry": { "type": "Point", "coordinates": [ 19.035083, 47.794015 ] } },
{ "type": "Feature", "properties": { "CityHun": "Dunabökény", "CityLoc": "Mladenovo", "CountryName": "Serbia", "CountryCode": "RS", "Latitude": 45.304291, "Longitude": 19.26208 }, "geometry": { "type": "Point", "coordinates": [ 19.26208, 45.304291 ] } },
{ "type": "Feature", "properties": { "CityHun": "Dunacséb", "CityLoc": "Èelarevo", "CountryName": "Serbia", "CountryCode": "RS", "Latitude": 45.27182, "Longitude": 19.527196 }, "geometry": { "type": "Point", "coordinates": [ 19.527196, 45.27182 ] } },
{ "type": "Feature", "properties": { "CityHun": "Dunacsún", "CityLoc": "Èuòovo", "CountryName": "Slovakia", "CountryCode": "SK", "Latitude": 48.030206, "Longitude": 17.194905 }, "geometry": { "type": "Point", "coordinates": [ 17.194905, 48.030206 ] } },
{ "type": "Feature", "properties": { "CityHun": "Dunadombó", "CityLoc": "Dubovac", "CountryName": "Serbia", "CountryCode": "RS", "Latitude": 44.795784, "Longitude": 21.206895 }, "geometry": { "type": "Point", "coordinates": [ 21.206895, 44.795784 ] } },
{ "type": "Feature", "properties": { "CityHun": "Dunaegyháza", "CityLoc": "Dunaegyháza", "CountryName": "Hungary", "CountryCode": "HU", "Latitude": 46.836612, "Longitude": 18.953575 }, "geometry": { "type": "Point", "coordinates": [ 18.953575, 46.836612 ] } },
{ "type": "Feature", "properties": { "CityHun": "Dunafalva", "CityLoc": "Dunafalva", "CountryName": "Hungary", "CountryCode": "HU", "Latitude": 46.083745, "Longitude": 18.773863 }, "geometry": { "type": "Point", "coordinates": [ 18.773863, 46.083745 ] } },
{ "type": "Feature", "properties": { "CityHun": "Dunaföldvár", "CityLoc": "Dunaföldvár", "CountryName": "Hungary", "CountryCode": "HU", "Latitude": 46.810432, "Longitude": 18.922292 }, "geometry": { "type": "Point", "coordinates": [ 18.922292, 46.810432 ] } },
{ "type": "Feature", "properties": { "CityHun": "Dunagálos", "CityLoc": "Gložan", "CountryName": "Serbia", "CountryCode": "RS", "Latitude": 45.277109, "Longitude": 19.574368 }, "geometry": { "type": "Point", "coordinates": [ 19.574368, 45.277109 ] } },
{ "type": "Feature", "properties": { "CityHun": "Dunagárdony", "CityLoc": "Gardinovci", "CountryName": "Serbia", "CountryCode": "RS", "Latitude": 45.20364, "Longitude": 20.135807 }, "geometry": { "type": "Point", "coordinates": [ 20.135807, 45.20364 ] } },
{ "type": "Feature", "properties": { "CityHun": "Dunaharaszti", "CityLoc": "Dunaharaszti", "CountryName": "Hungary", "CountryCode": "HU", "Latitude": 47.359976, "Longitude": 19.095336 }, "geometry": { "type": "Point", "coordinates": [ 19.095336, 47.359976 ] } },
{ "type": "Feature", "properties": { "CityHun": "Dunahidas", "CityLoc": "Most pri Bratislava", "CountryName": "Slovakia", "CountryCode": "SK", "Latitude": 48.145545, "Longitude": 17.263886 }, "geometry": { "type": "Point", "coordinates": [ 17.263886, 48.145545 ] } },
{ "type": "Feature", "properties": { "CityHun": "Dunajánosháza", "CityLoc": "Jánovce", "CountryName": "Slovakia", "CountryCode": "SK", "Latitude": 49.190508, "Longitude": 21.305252 }, "geometry": { "type": "Point", "coordinates": [ 21.305252, 49.190508 ] } },
{ "type": "Feature", "properties": { "CityHun": "Dunajó", "CityLoc": "Dunajov", "CountryName": "Slovakia", "CountryCode": "SK", "Latitude": 49.360688, "Longitude": 18.820818 }, "geometry": { "type": "Point", "coordinates": [ 18.820818, 49.360688 ] } },
{ "type": "Feature", "properties": { "CityHun": "Dunakeszi", "CityLoc": "Dunakeszi", "CountryName": "Hungary", "CountryCode": "HU", "Latitude": 47.63167, "Longitude": 19.129406 }, "geometry": { "type": "Point", "coordinates": [ 19.129406, 47.63167 ] } },
{ "type": "Feature", "properties": { "CityHun": "Dunakeszi ", "CityLoc": "Dunakeszi ", "CountryName": "Hungary", "CountryCode": "HU", "Latitude": 47.63167, "Longitude": 19.129406 }, "geometry": { "type": "Point", "coordinates": [ 19.129406, 47.63167 ] } },
{ "type": "Feature", "properties": { "CityHun": "Dunakiliti", "CityLoc": "Dunakiliti", "CountryName": "Hungary", "CountryCode": "HU", "Latitude": 47.966133, "Longitude": 17.288257 }, "geometry": { "type": "Point", "coordinates": [ 17.288257, 47.966133 ] } },
{ "type": "Feature", "properties": { "CityHun": "Dunakisfalud", "CityLoc": "Vieska", "CountryName": "Slovakia", "CountryCode": "SK", "Latitude": 48.667324, "Longitude": 20.83667 }, "geometry": { "type": "Point", "coordinates": [ 20.83667, 48.667324 ] } },
{ "type": "Feature", "properties": { "CityHun": "Dunamocs", "CityLoc": "Moèa", "CountryName": "Slovakia", "CountryCode": "SK", "Latitude": 47.77687, "Longitude": 18.405962 }, "geometry": { "type": "Point", "coordinates": [ 18.405962, 47.77687 ] } },
{ "type": "Feature", "properties": { "CityHun": "Dunaorbágy", "CityLoc": "Ieºelniþa", "CountryName": "Romania", "CountryCode": "RO", "Latitude": 44.741859, "Longitude": 22.269836 }, "geometry": { "type": "Point", "coordinates": [ 22.269836, 44.741859 ] } },
{ "type": "Feature", "properties": { "CityHun": "Dunapataj", "CityLoc": "Dunapataj", "CountryName": "Hungary", "CountryCode": "HU", "Latitude": 46.644276, "Longitude": 18.999011 }, "geometry": { "type": "Point", "coordinates": [ 18.999011, 46.644276 ] } },
{ "type": "Feature", "properties": { "CityHun": "Dunaradvány", "CityLoc": "Radvaò nad Dunajom", "CountryName": "Slovakia", "CountryCode": "SK", "Latitude": 47.761913, "Longitude": 18.358793 }, "geometry": { "type": "Point", "coordinates": [ 18.358793, 47.761913 ] } },
{ "type": "Feature", "properties": { "CityHun": "Dunaremete", "CityLoc": "Dunaremete", "CountryName": "Hungary", "CountryCode": "HU", "Latitude": 47.876644, "Longitude": 17.437091 }, "geometry": { "type": "Point", "coordinates": [ 17.437091, 47.876644 ] } },
{ "type": "Feature", "properties": { "CityHun": "Dunasáp", "CityLoc": "Dedinka pri Dunaji", "CountryName": "Slovakia", "CountryCode": "SK", "Latitude": 48.183275, "Longitude": 17.349034 }, "geometry": { "type": "Point", "coordinates": [ 17.349034, 48.183275 ] } },
{ "type": "Feature", "properties": { "CityHun": "Dunaszeg", "CityLoc": "Dunaszeg", "CountryName": "Hungary", "CountryCode": "HU", "Latitude": 47.769646, "Longitude": 17.540074 }, "geometry": { "type": "Point", "coordinates": [ 17.540074, 47.769646 ] } },
{ "type": "Feature", "properties": { "CityHun": "Dunaszekcsõ", "CityLoc": "Dunaszekcsõ", "CountryName": "Hungary", "CountryCode": "HU", "Latitude": 46.084879, "Longitude": 18.759613 }, "geometry": { "type": "Point", "coordinates": [ 18.759613, 46.084879 ] } },
{ "type": "Feature", "properties": { "CityHun": "Dunaszentbenedek", "CityLoc": "Dunaszentbenedek", "CountryName": "Hungary", "CountryCode": "HU", "Latitude": 46.59387, "Longitude": 18.894405 }, "geometry": { "type": "Point", "coordinates": [ 18.894405, 46.59387 ] } },
{ "type": "Feature", "properties": { "CityHun": "Dunaszentgyörgy", "CityLoc": "Dunaszentgyörgy", "CountryName": "Hungary", "CountryCode": "HU", "Latitude": 46.534705, "Longitude": 18.811276 }, "geometry": { "type": "Point", "coordinates": [ 18.811276, 46.534705 ] } },
{ "type": "Feature", "properties": { "CityHun": "Dunaszentilona", "CityLoc": "Sfânta Elena", "CountryName": "Romania", "CountryCode": "RO", "Latitude": 44.677303, "Longitude": 21.711452 }, "geometry": { "type": "Point", "coordinates": [ 21.711452, 44.677303 ] } },
{ "type": "Feature", "properties": { "CityHun": "Dunaszentmiklós", "CityLoc": "Dunaszentmiklós", "CountryName": "Hungary", "CountryCode": "HU", "Latitude": 47.704011, "Longitude": 18.381417 }, "geometry": { "type": "Point", "coordinates": [ 18.381417, 47.704011 ] } },
{ "type": "Feature", "properties": { "CityHun": "Dunaszentpál", "CityLoc": "Dunaszentpál", "CountryName": "Hungary", "CountryCode": "HU", "Latitude": 47.776717, "Longitude": 17.50706 }, "geometry": { "type": "Point", "coordinates": [ 17.50706, 47.776717 ] } },
{ "type": "Feature", "properties": { "CityHun": "Dunaszerdahely", "CityLoc": "Dunajská Streda", "CountryName": "Slovakia", "CountryCode": "SK", "Latitude": 47.985118, "Longitude": 17.614173 }, "geometry": { "type": "Point", "coordinates": [ 17.614173, 47.985118 ] } },
{ "type": "Feature", "properties": { "CityHun": "Dunasziget", "CityLoc": "Dunasziget", "CountryName": "Hungary", "CountryCode": "HU", "Latitude": 47.941444, "Longitude": 17.353902 }, "geometry": { "type": "Point", "coordinates": [ 17.353902, 47.941444 ] } },
{ "type": "Feature", "properties": { "CityHun": "Dunatetétlen", "CityLoc": "Dunatetétlen", "CountryName": "Hungary", "CountryCode": "HU", "Latitude": 46.755103, "Longitude": 19.101877 }, "geometry": { "type": "Point", "coordinates": [ 19.101877, 46.755103 ] } },
{ "type": "Feature", "properties": { "CityHun": "Dunatorony", "CityLoc": "Tureò", "CountryName": "Slovakia", "CountryCode": "SK", "Latitude": 48.192183, "Longitude": 17.389244 }, "geometry": { "type": "Point", "coordinates": [ 17.389244, 48.192183 ] } },
{ "type": "Feature", "properties": { "CityHun": "Dunatõkés", "CityLoc": "Dunajský Klátov", "CountryName": "Slovakia", "CountryCode": "SK", "Latitude": 48.03269, "Longitude": 17.692381 }, "geometry": { "type": "Point", "coordinates": [ 17.692381, 48.03269 ] } },
{ "type": "Feature", "properties": { "CityHun": "Dunatölgyes", "CityLoc": "Dubova", "CountryName": "Romania", "CountryCode": "RO", "Latitude": 44.619505, "Longitude": 22.25545 }, "geometry": { "type": "Point", "coordinates": [ 22.25545, 44.619505 ] } },
{ "type": "Feature", "properties": { "CityHun": "Dunaújfalu", "CityLoc": "Nová Dedinka", "CountryName": "Slovakia", "CountryCode": "SK", "Latitude": 48.184588, "Longitude": 17.360204 }, "geometry": { "type": "Point", "coordinates": [ 17.360204, 48.184588 ] } },
{ "type": "Feature", "properties": { "CityHun": "Dunaújváros", "CityLoc": "Dunaújváros", "CountryName": "Hungary", "CountryCode": "HU", "Latitude": 46.967024, "Longitude": 18.939706 }, "geometry": { "type": "Point", "coordinates": [ 18.939706, 46.967024 ] } },
{ "type": "Feature", "properties": { "CityHun": "Dunaújvárosi ", "CityLoc": "Dunaújvárosi ", "CountryName": "Hungary", "CountryCode": "HU", "Latitude": 47.014336, "Longitude": 18.845776 }, "geometry": { "type": "Point", "coordinates": [ 18.845776, 47.014336 ] } },
{ "type": "Feature", "properties": { "CityHun": "Dunavarsány", "CityLoc": "Dunavarsány", "CountryName": "Hungary", "CountryCode": "HU", "Latitude": 47.279187, "Longitude": 19.066161 }, "geometry": { "type": "Point", "coordinates": [ 19.066161, 47.279187 ] } },
{ "type": "Feature", "properties": { "CityHun": "Dunavecse", "CityLoc": "Dunavecse", "CountryName": "Hungary", "CountryCode": "HU", "Latitude": 46.916366, "Longitude": 18.971654 }, "geometry": { "type": "Point", "coordinates": [ 18.971654, 46.916366 ] } },
{ "type": "Feature", "properties": { "CityHun": "Feketetisza", "CityLoc": "Csorna Tisza", "CountryName": "Ukraine", "CountryCode": "UA", "Latitude": 48.31445, "Longitude": 24.324299 }, "geometry": { "type": "Point", "coordinates": [ 24.324299, 48.31445 ] } },
{ "type": "Feature", "properties": { "CityHun": "Felsõmarosújvár", "CityLoc": "Uioara de Sus", "CountryName": "Romania", "CountryCode": "RO", "Latitude": 46.389733, "Longitude": 23.887006 }, "geometry": { "type": "Point", "coordinates": [ 23.887006, 46.389733 ] } },
{ "type": "Feature", "properties": { "CityHun": "Felsõsajó", "CityLoc": "Vyšná Slaná", "CountryName": "Slovakia", "CountryCode": "SK", "Latitude": 48.785881, "Longitude": 20.319336 }, "geometry": { "type": "Point", "coordinates": [ 20.319336, 48.785881 ] } },
{ "type": "Feature", "properties": { "CityHun": "Holtmaros", "CityLoc": "Lunca Mureºului", "CountryName": "Romania", "CountryCode": "RO", "Latitude": 46.874599, "Longitude": 24.790733 }, "geometry": { "type": "Point", "coordinates": [ 24.790733, 46.874599 ] } },
{ "type": "Feature", "properties": { "CityHun": "Kismaros", "CityLoc": "Kismaros", "CountryName": "Hungary", "CountryCode": "HU", "Latitude": 47.826576, "Longitude": 19.012628 }, "geometry": { "type": "Point", "coordinates": [ 19.012628, 47.826576 ] } },
{ "type": "Feature", "properties": { "CityHun": "Kissajó", "CityLoc": "ªieuþ", "CountryName": "Romania", "CountryCode": "RO", "Latitude": 46.976649, "Longitude": 24.648069 }, "geometry": { "type": "Point", "coordinates": [ 24.648069, 46.976649 ] } },
{ "type": "Feature", "properties": { "CityHun": "Kõvágó", "CityLoc": "Kamenná Poruba", "CountryName": "Slovakia", "CountryCode": "SK", "Latitude": 48.847796, "Longitude": 21.655459 }, "geometry": { "type": "Point", "coordinates": [ 21.655459, 48.847796 ] } },
{ "type": "Feature", "properties": { "CityHun": "Kõvágóörs", "CityLoc": "Kõvágóörs", "CountryName": "Hungary", "CountryCode": "HU", "Latitude": 46.849038, "Longitude": 17.60161 }, "geometry": { "type": "Point", "coordinates": [ 17.60161, 46.849038 ] } },
{ "type": "Feature", "properties": { "CityHun": "Kõvágószõlõs", "CityLoc": "Kõvágószõlõs", "CountryName": "Hungary", "CountryCode": "HU", "Latitude": 46.083969, "Longitude": 18.123781 }, "geometry": { "type": "Point", "coordinates": [ 18.123781, 46.083969 ] } },
{ "type": "Feature", "properties": { "CityHun": "Kõvágótöttös", "CityLoc": "Kõvágótöttös", "CountryName": "Hungary", "CountryCode": "HU", "Latitude": 46.084265, "Longitude": 18.100312 }, "geometry": { "type": "Point", "coordinates": [ 18.100312, 46.084265 ] } },
{ "type": "Feature", "properties": { "CityHun": "Máramarossziget", "CityLoc": "Sighetu Marmaþiei", "CountryName": "Romania", "CountryCode": "RO", "Latitude": 47.929361, "Longitude": 23.887968 }, "geometry": { "type": "Point", "coordinates": [ 23.887968, 47.929361 ] } },
{ "type": "Feature", "properties": { "CityHun": "Marosagárd", "CityLoc": "Poieniþa", "CountryName": "Romania", "CountryCode": "RO", "Latitude": 47.308742, "Longitude": 23.347637 }, "geometry": { "type": "Point", "coordinates": [ 23.347637, 47.308742 ] } },
{ "type": "Feature", "properties": { "CityHun": "Marosaszó", "CityLoc": "Ususãu", "CountryName": "Romania", "CountryCode": "RO", "Latitude": 46.070628, "Longitude": 21.813712 }, "geometry": { "type": "Point", "coordinates": [ 21.813712, 46.070628 ] } },
{ "type": "Feature", "properties": { "CityHun": "Marosbárdos", "CityLoc": "Bãrdeºti", "CountryName": "Romania", "CountryCode": "RO", "Latitude": 46.594513, "Longitude": 24.513094 }, "geometry": { "type": "Point", "coordinates": [ 24.513094, 46.594513 ] } },
{ "type": "Feature", "properties": { "CityHun": "Marosbéld", "CityLoc": "Beldiu", "CountryName": "Romania", "CountryCode": "RO", "Latitude": 46.236295, "Longitude": 23.715374 }, "geometry": { "type": "Point", "coordinates": [ 23.715374, 46.236295 ] } },
{ "type": "Feature", "properties": { "CityHun": "Marosberkes", "CityLoc": "Birchiº", "CountryName": "Romania", "CountryCode": "RO", "Latitude": 45.96496, "Longitude": 22.169987 }, "geometry": { "type": "Point", "coordinates": [ 22.169987, 45.96496 ] } },
{ "type": "Feature", "properties": { "CityHun": "Marosbogát", "CityLoc": "Bogata", "CountryName": "Romania", "CountryCode": "RO", "Latitude": 44.206817, "Longitude": 27.116704 }, "geometry": { "type": "Point", "coordinates": [ 27.116704, 44.206817 ] } },
{ "type": "Feature", "properties": { "CityHun": "Marosborgó", "CityLoc": "Mureºenii Bârgãului", "CountryName": "Romania", "CountryCode": "RO", "Latitude": 47.210662, "Longitude": 24.859955 }, "geometry": { "type": "Point", "coordinates": [ 24.859955, 47.210662 ] } },
{ "type": "Feature", "properties": { "CityHun": "Marosborosznok", "CityLoc": "Bruznic", "CountryName": "Romania", "CountryCode": "RO", "Latitude": 45.981276, "Longitude": 21.892251 }, "geometry": { "type": "Point", "coordinates": [ 21.892251, 45.981276 ] } },
{ "type": "Feature", "properties": { "CityHun": "Marosborsa", "CityLoc": "Bârzava", "CountryName": "Romania", "CountryCode": "RO", "Latitude": 46.106362, "Longitude": 21.992566 }, "geometry": { "type": "Point", "coordinates": [ 21.992566, 46.106362 ] } },
{ "type": "Feature", "properties": { "CityHun": "Marosbrettye", "CityLoc": "Bretea Mureºanã", "CountryName": "Romania", "CountryCode": "RO", "Latitude": 45.937633, "Longitude": 22.710494 }, "geometry": { "type": "Point", "coordinates": [ 22.710494, 45.937633 ] } },
{ "type": "Feature", "properties": { "CityHun": "Maroscsapó", "CityLoc": "Cipãu", "CountryName": "Romania", "CountryCode": "RO", "Latitude": 46.446181, "Longitude": 24.281494 }, "geometry": { "type": "Point", "coordinates": [ 24.281494, 46.446181 ] } },
{ "type": "Feature", "properties": { "CityHun": "Maroscsicsér", "CityLoc": "Cicir", "CountryName": "Romania", "CountryCode": "RO", "Latitude": 46.144772, "Longitude": 21.480124 }, "geometry": { "type": "Point", "coordinates": [ 21.480124, 46.144772 ] } },
{ "type": "Feature", "properties": { "CityHun": "Maroscsúcs", "CityLoc": "Stâna de Mureº", "CountryName": "Romania", "CountryCode": "RO", "Latitude": 46.42504, "Longitude": 23.995785 }, "geometry": { "type": "Point", "coordinates": [ 23.995785, 46.42504 ] } },
{ "type": "Feature", "properties": { "CityHun": "Maroscsüged", "CityLoc": "Ciugud", "CountryName": "Romania", "CountryCode": "RO", "Latitude": 46.046065, "Longitude": 23.612864 }, "geometry": { "type": "Point", "coordinates": [ 23.612864, 46.046065 ] } },
{ "type": "Feature", "properties": { "CityHun": "Marosdátos", "CityLoc": "Dãtãºeni", "CountryName": "Romania", "CountryCode": "RO", "Latitude": 46.474748, "Longitude": 24.174852 }, "geometry": { "type": "Point", "coordinates": [ 24.174852, 46.474748 ] } },
{ "type": "Feature", "properties": { "CityHun": "Marosdécse", "CityLoc": "Decea", "CountryName": "Romania", "CountryCode": "RO", "Latitude": 46.382214, "Longitude": 23.766361 }, "geometry": { "type": "Point", "coordinates": [ 23.766361, 46.382214 ] } },
{ "type": "Feature", "properties": { "CityHun": "Marosdég", "CityLoc": "Deag", "CountryName": "Romania", "CountryCode": "RO", "Latitude": 46.388962, "Longitude": 24.192676 }, "geometry": { "type": "Point", "coordinates": [ 24.192676, 46.388962 ] } },
{ "type": "Feature", "properties": { "CityHun": "Maroseperjes", "CityLoc": "Chelmac", "CountryName": "Romania", "CountryCode": "RO", "Latitude": 46.081797, "Longitude": 21.884631 }, "geometry": { "type": "Point", "coordinates": [ 21.884631, 46.081797 ] } },
{ "type": "Feature", "properties": { "CityHun": "Maroserdõd", "CityLoc": "Pãdurani", "CountryName": "Romania", "CountryCode": "RO", "Latitude": 45.87855, "Longitude": 22.068056 }, "geometry": { "type": "Point", "coordinates": [ 22.068056, 45.87855 ] } },
{ "type": "Feature", "properties": { "CityHun": "Marosesd", "CityLoc": "Mãrãºeºti", "CountryName": "Romania", "CountryCode": "RO", "Latitude": 45.874081, "Longitude": 27.218417 }, "geometry": { "type": "Point", "coordinates": [ 27.218417, 45.874081 ] } },
{ "type": "Feature", "properties": { "CityHun": "Marosfalva", "CityLoc": "Marušová", "CountryName": "Slovakia", "CountryCode": "SK", "Latitude": 48.236037, "Longitude": 18.521126 }, "geometry": { "type": "Point", "coordinates": [ 18.521126, 48.236037 ] } },
{ "type": "Feature", "properties": { "CityHun": "Marosfelfalu", "CityLoc": "Suseni", "CountryName": "Romania", "CountryCode": "RO", "Latitude": 46.353748, "Longitude": 27.662461 }, "geometry": { "type": "Point", "coordinates": [ 27.662461, 46.353748 ] } },
{ "type": "Feature", "properties": { "CityHun": "Marosfõ", "CityLoc": "Izvoru Mureºului", "CountryName": "Romania", "CountryCode": "RO", "Latitude": 46.627095, "Longitude": 25.682744 }, "geometry": { "type": "Point", "coordinates": [ 25.682744, 46.627095 ] } },
{ "type": "Feature", "properties": { "CityHun": "Marosgezse", "CityLoc": "Gheja", "CountryName": "Romania", "CountryCode": "RO", "Latitude": 46.448426, "Longitude": 24.064493 }, "geometry": { "type": "Point", "coordinates": [ 24.064493, 46.448426 ] } },
{ "type": "Feature", "properties": { "CityHun": "Marosgombás", "CityLoc": "Gâmbaº", "CountryName": "Romania", "CountryCode": "RO", "Latitude": 46.346133, "Longitude": 23.723575 }, "geometry": { "type": "Point", "coordinates": [ 23.723575, 46.346133 ] } },
{ "type": "Feature", "properties": { "CityHun": "Marosgórós", "CityLoc": "Groºi", "CountryName": "Romania", "CountryCode": "RO", "Latitude": 45.914905, "Longitude": 22.28657 }, "geometry": { "type": "Point", "coordinates": [ 22.28657, 45.914905 ] } },
{ "type": "Feature", "properties": { "CityHun": "Maroshéviz", "CityLoc": "Topliþa", "CountryName": "Romania", "CountryCode": "RO", "Latitude": 47.358575, "Longitude": 23.465404 }, "geometry": { "type": "Point", "coordinates": [ 23.465404, 47.358575 ] } },
{ "type": "Feature", "properties": { "CityHun": "Maroshollód", "CityLoc": "Corbeºti", "CountryName": "Romania", "CountryCode": "RO", "Latitude": 46.89208, "Longitude": 22.232472 }, "geometry": { "type": "Point", "coordinates": [ 22.232472, 46.89208 ] } },
{ "type": "Feature", "properties": { "CityHun": "Marosillye", "CityLoc": "Ilia", "CountryName": "Romania", "CountryCode": "RO", "Latitude": 45.934765, "Longitude": 22.658364 }, "geometry": { "type": "Point", "coordinates": [ 22.658364, 45.934765 ] } },
{ "type": "Feature", "properties": { "CityHun": "Marosjára", "CityLoc": "Iara de Mureº", "CountryName": "Romania", "CountryCode": "RO", "Latitude": 46.661484, "Longitude": 24.730556 }, "geometry": { "type": "Point", "coordinates": [ 24.730556, 46.661484 ] } },
{ "type": "Feature", "properties": { "CityHun": "Maroskapronca", "CityLoc": "Cãpruþa", "CountryName": "Romania", "CountryCode": "RO", "Latitude": 46.088608, "Longitude": 22.02522 }, "geometry": { "type": "Point", "coordinates": [ 22.02522, 46.088608 ] } },
{ "type": "Feature", "properties": { "CityHun": "Maroskáptalan", "CityLoc": "Cãptãlan", "CountryName": "Romania", "CountryCode": "RO", "Latitude": 46.409208, "Longitude": 23.941717 }, "geometry": { "type": "Point", "coordinates": [ 23.941717, 46.409208 ] } },
{ "type": "Feature", "properties": { "CityHun": "Maroskarna", "CityLoc": "Blandiana", "CountryName": "Romania", "CountryCode": "RO", "Latitude": 45.976944, "Longitude": 23.38589 }, "geometry": { "type": "Point", "coordinates": [ 23.38589, 45.976944 ] } },
{ "type": "Feature", "properties": { "CityHun": "Maroskece", "CityLoc": "Cheþani", "CountryName": "Romania", "CountryCode": "RO", "Latitude": 46.464351, "Longitude": 24.02788 }, "geometry": { "type": "Point", "coordinates": [ 24.02788, 46.464351 ] } },
{ "type": "Feature", "properties": { "CityHun": "Maroskeresztúr", "CityLoc": "Cristeºti", "CountryName": "Romania", "CountryCode": "RO", "Latitude": 47.261555, "Longitude": 26.580322 }, "geometry": { "type": "Point", "coordinates": [ 26.580322, 47.261555 ] } },
{ "type": "Feature", "properties": { "CityHun": "Maroskisfalud", "CityLoc": "Miceºti", "CountryName": "Romania", "CountryCode": "RO", "Latitude": 44.961465, "Longitude": 24.855199 }, "geometry": { "type": "Point", "coordinates": [ 24.855199, 44.961465 ] } },
{ "type": "Feature", "properties": { "CityHun": "Maroskoppánd", "CityLoc": "Copand", "CountryName": "Romania", "CountryCode": "RO", "Latitude": 46.41999, "Longitude": 23.981086 }, "geometry": { "type": "Point", "coordinates": [ 23.981086, 46.41999 ] } },
{ "type": "Feature", "properties": { "CityHun": "Maroskövesd", "CityLoc": "Pietriº", "CountryName": "Romania", "CountryCode": "RO", "Latitude": 46.935937, "Longitude": 24.844078 }, "geometry": { "type": "Point", "coordinates": [ 24.844078, 46.935937 ] } },
{ "type": "Feature", "properties": { "CityHun": "Maroslaka", "CityLoc": "Maioreºti", "CountryName": "Romania", "CountryCode": "RO", "Latitude": 46.907872, "Longitude": 24.8106 }, "geometry": { "type": "Point", "coordinates": [ 24.8106, 46.907872 ] } },
{ "type": "Feature", "properties": { "CityHun": "Maroslekence", "CityLoc": "Lechinþa", "CountryName": "Romania", "CountryCode": "RO", "Latitude": 47.023117, "Longitude": 24.337962 }, "geometry": { "type": "Point", "coordinates": [ 24.337962, 47.023117 ] } },
{ "type": "Feature", "properties": { "CityHun": "Maroslele", "CityLoc": "Maroslele", "CountryName": "Hungary", "CountryCode": "HU", "Latitude": 46.267462, "Longitude": 20.342635 }, "geometry": { "type": "Point", "coordinates": [ 20.342635, 46.267462 ] } },
{ "type": "Feature", "properties": { "CityHun": "Marosliget", "CityLoc": "Dumbrava", "CountryName": "Romania", "CountryCode": "RO", "Latitude": 47.214268, "Longitude": 24.621593 }, "geometry": { "type": "Point", "coordinates": [ 24.621593, 47.214268 ] } },
{ "type": "Feature", "properties": { "CityHun": "Marosludas", "CityLoc": "Luduº", "CountryName": "Romania", "CountryCode": "RO", "Latitude": 46.483306, "Longitude": 24.095084 }, "geometry": { "type": "Point", "coordinates": [ 24.095084, 46.483306 ] } },
{ "type": "Feature", "properties": { "CityHun": "Marosmonyoró", "CityLoc": "Monoroºtia", "CountryName": "Romania", "CountryCode": "RO", "Latitude": 46.10476, "Longitude": 22.013779 }, "geometry": { "type": "Point", "coordinates": [ 22.013779, 46.10476 ] } },
{ "type": "Feature", "properties": { "CityHun": "Marosnagylak", "CityLoc": "Noºlac", "CountryName": "Romania", "CountryCode": "RO", "Latitude": 46.404279, "Longitude": 23.932844 }, "geometry": { "type": "Point", "coordinates": [ 23.932844, 46.404279 ] } },
{ "type": "Feature", "properties": { "CityHun": "Marosnagyvölgy", "CityLoc": "Valea Mare", "CountryName": "Romania", "CountryCode": "RO", "Latitude": 44.680477, "Longitude": 23.995069 }, "geometry": { "type": "Point", "coordinates": [ 23.995069, 44.680477 ] } },
{ "type": "Feature", "properties": { "CityHun": "Marosnémeti", "CityLoc": "Mintia", "CountryName": "Romania", "CountryCode": "RO", "Latitude": 45.919276, "Longitude": 22.851841 }, "geometry": { "type": "Point", "coordinates": [ 22.851841, 45.919276 ] } },
{ "type": "Feature", "properties": { "CityHun": "Marosorbó", "CityLoc": "Oarba de Mureº", "CountryName": "Romania", "CountryCode": "RO", "Latitude": 46.462354, "Longitude": 24.28992 }, "geometry": { "type": "Point", "coordinates": [ 24.28992, 46.462354 ] } },
{ "type": "Feature", "properties": { "CityHun": "Marosoroszfalu", "CityLoc": "Ruºii-Munþi", "CountryName": "Romania", "CountryCode": "RO", "Latitude": 46.915249, "Longitude": 24.832819 }, "geometry": { "type": "Point", "coordinates": [ 24.832819, 46.915249 ] } },
{ "type": "Feature", "properties": { "CityHun": "Marosoroszi", "CityLoc": "Urisiu de Sus", "CountryName": "Romania", "CountryCode": "RO", "Latitude": 46.706223, "Longitude": 24.911087 }, "geometry": { "type": "Point", "coordinates": [ 24.911087, 46.706223 ] } },
{ "type": "Feature", "properties": { "CityHun": "Marosoroszi", "CityLoc": "Orosia", "CountryName": "Romania", "CountryCode": "RO", "Latitude": 46.456511, "Longitude": 24.140508 }, "geometry": { "type": "Point", "coordinates": [ 24.140508, 46.456511 ] } },
{ "type": "Feature", "properties": { "CityHun": "Marosörményes", "CityLoc": "Ormeniº", "CountryName": "Romania", "CountryCode": "RO", "Latitude": 46.325479, "Longitude": 24.54376 }, "geometry": { "type": "Point", "coordinates": [ 24.54376, 46.325479 ] } },
{ "type": "Feature", "properties": { "CityHun": "Marospetres", "CityLoc": "Petriº", "CountryName": "Romania", "CountryCode": "RO", "Latitude": 47.098596, "Longitude": 24.623356 }, "geometry": { "type": "Point", "coordinates": [ 24.623356, 47.098596 ] } },
{ "type": "Feature", "properties": { "CityHun": "Marossárpatak", "CityLoc": "Glodeni", "CountryName": "Romania", "CountryCode": "RO", "Latitude": 45.021737, "Longitude": 25.463959 }, "geometry": { "type": "Point", "coordinates": [ 25.463959, 45.021737 ] } },
{ "type": "Feature", "properties": { "CityHun": "Marossolymos", "CityLoc": "ªoimuº", "CountryName": "Romania", "CountryCode": "RO", "Latitude": 47.299499, "Longitude": 23.183243 }, "geometry": { "type": "Point", "coordinates": [ 23.183243, 47.299499 ] } },
{ "type": "Feature", "properties": { "CityHun": "Marosszalatna", "CityLoc": "Slatina de Mureº", "CountryName": "Romania", "CountryCode": "RO", "Latitude": 46.156105, "Longitude": 22.184437 }, "geometry": { "type": "Point", "coordinates": [ 22.184437, 46.156105 ] } },
{ "type": "Feature", "properties": { "CityHun": "Marosszeleste", "CityLoc": "Seliºte", "CountryName": "Romania", "CountryCode": "RO", "Latitude": 46.029239, "Longitude": 22.387791 }, "geometry": { "type": "Point", "coordinates": [ 22.387791, 46.029239 ] } },
{ "type": "Feature", "properties": { "CityHun": "Marosszentanna", "CityLoc": "Sântana de Mureº", "CountryName": "Romania", "CountryCode": "RO", "Latitude": 46.578499, "Longitude": 24.557482 }, "geometry": { "type": "Point", "coordinates": [ 24.557482, 46.578499 ] } },
{ "type": "Feature", "properties": { "CityHun": "Marosszentgyörgy", "CityLoc": "Sângeorgiu de Mureº", "CountryName": "Romania", "CountryCode": "RO", "Latitude": 46.578085, "Longitude": 24.611417 }, "geometry": { "type": "Point", "coordinates": [ 24.611417, 46.578085 ] } },
{ "type": "Feature", "properties": { "CityHun": "Marosszentimre", "CityLoc": "Sântimbru", "CountryName": "Romania", "CountryCode": "RO", "Latitude": 46.285083, "Longitude": 25.868546 }, "geometry": { "type": "Point", "coordinates": [ 25.868546, 46.285083 ] } },
{ "type": "Feature", "properties": { "CityHun": "Marosszentjakab", "CityLoc": "Sâniacob", "CountryName": "Romania", "CountryCode": "RO", "Latitude": 46.423543, "Longitude": 24.131916 }, "geometry": { "type": "Point", "coordinates": [ 24.131916, 46.423543 ] } },
{ "type": "Feature", "properties": { "CityHun": "Marosszentkirály", "CityLoc": "Sâncraiu de Mureº", "CountryName": "Romania", "CountryCode": "RO", "Latitude": 46.544963, "Longitude": 24.520497 }, "geometry": { "type": "Point", "coordinates": [ 24.520497, 46.544963 ] } },
{ "type": "Feature", "properties": { "CityHun": "Marossziget", "CityLoc": "Ostrov", "CountryName": "Romania", "CountryCode": "RO", "Latitude": 44.105671, "Longitude": 27.370717 }, "geometry": { "type": "Point", "coordinates": [ 27.370717, 44.105671 ] } },
{ "type": "Feature", "properties": { "CityHun": "Marostelek", "CityLoc": "Teleac", "CountryName": "Romania", "CountryCode": "RO", "Latitude": 46.088081, "Longitude": 23.628591 }, "geometry": { "type": "Point", "coordinates": [ 23.628591, 46.088081 ] } },
{ "type": "Feature", "properties": { "CityHun": "Marosugra", "CityLoc": "Ogra", "CountryName": "Romania", "CountryCode": "RO", "Latitude": 46.446682, "Longitude": 24.318044 }, "geometry": { "type": "Point", "coordinates": [ 24.318044, 46.446682 ] } },
{ "type": "Feature", "properties": { "CityHun": "Marosújvár", "CityLoc": "Ocna Mureº", "CountryName": "Romania", "CountryCode": "RO", "Latitude": 46.381403, "Longitude": 23.857735 }, "geometry": { "type": "Point", "coordinates": [ 23.857735, 46.381403 ] } },
{ "type": "Feature", "properties": { "CityHun": "Marosvásárhely", "CityLoc": "Târgu Mureº", "CountryName": "Romania", "CountryCode": "RO", "Latitude": 46.544624, "Longitude": 24.561195 }, "geometry": { "type": "Point", "coordinates": [ 24.561195, 46.544624 ] } },
{ "type": "Feature", "properties": { "CityHun": "Marosvécs", "CityLoc": "Brâncoveneºti", "CountryName": "Romania", "CountryCode": "RO", "Latitude": 46.855274, "Longitude": 24.758017 }, "geometry": { "type": "Point", "coordinates": [ 24.758017, 46.855274 ] } },
{ "type": "Feature", "properties": { "CityHun": "Kisvajdafalva", "CityLoc": "Voivodenii Mici", "CountryName": "Romania", "CountryCode": "RO", "Latitude": 0.0, "Longitude": 0.0 }, "geometry": { "type": "Point", "coordinates": [ 0.0, 0.0 ] } },
{ "type": "Feature", "properties": { "CityHun": "Nagymaros", "CityLoc": "Nagymaros", "CountryName": "Hungary", "CountryCode": "HU", "Latitude": 47.789105, "Longitude": 18.958935 }, "geometry": { "type": "Point", "coordinates": [ 18.958935, 47.789105 ] } },
{ "type": "Feature", "properties": { "CityHun": "Nagysajó", "CityLoc": "ªieu", "CountryName": "Romania", "CountryCode": "RO", "Latitude": 47.001073, "Longitude": 24.608549 }, "geometry": { "type": "Point", "coordinates": [ 24.608549, 47.001073 ] } },
{ "type": "Feature", "properties": { "CityHun": "Óbodrog", "CityLoc": "Bodrogu Vechi", "CountryName": "Romania", "CountryCode": "RO", "Latitude": 46.138903, "Longitude": 21.174656 }, "geometry": { "type": "Point", "coordinates": [ 21.174656, 46.138903 ] } },
{ "type": "Feature", "properties": { "CityHun": "Ószagyva", "CityLoc": "Sadova Veche", "CountryName": "Romania", "CountryCode": "RO", "Latitude": 45.249062, "Longitude": 22.298024 }, "geometry": { "type": "Point", "coordinates": [ 22.298024, 45.249062 ] } },
{ "type": "Feature", "properties": { "CityHun": "Rábacsanak", "CityLoc": "Rábacsanak", "CountryName": "Hungary", "CountryCode": "HU", "Latitude": 47.525492, "Longitude": 17.289467 }, "geometry": { "type": "Point", "coordinates": [ 17.289467, 47.525492 ] } },
{ "type": "Feature", "properties": { "CityHun": "Rábacsécsény", "CityLoc": "Rábacsécsény", "CountryName": "Hungary", "CountryCode": "HU", "Latitude": 47.587767, "Longitude": 17.423337 }, "geometry": { "type": "Point", "coordinates": [ 17.423337, 47.587767 ] } },
{ "type": "Feature", "properties": { "CityHun": "Rábagyarmat", "CityLoc": "Rábagyarmat", "CountryName": "Hungary", "CountryCode": "HU", "Latitude": 46.942711, "Longitude": 16.421771 }, "geometry": { "type": "Point", "coordinates": [ 16.421771, 46.942711 ] } },
{ "type": "Feature", "properties": { "CityHun": "Rábahídvég", "CityLoc": "Rábahídvég", "CountryName": "Hungary", "CountryCode": "HU", "Latitude": 47.0725, "Longitude": 16.742143 }, "geometry": { "type": "Point", "coordinates": [ 16.742143, 47.0725 ] } },
{ "type": "Feature", "properties": { "CityHun": "Rábakecöl", "CityLoc": "Rábakecöl", "CountryName": "Hungary", "CountryCode": "HU", "Latitude": 47.432216, "Longitude": 17.114087 }, "geometry": { "type": "Point", "coordinates": [ 17.114087, 47.432216 ] } },
{ "type": "Feature", "properties": { "CityHun": "Rábakeresztúr", "CityLoc": "Heiligenkreuz im Lafnitztal", "CountryName": "Austria", "CountryCode": "AT", "Latitude": 46.98921, "Longitude": 16.2605 }, "geometry": { "type": "Point", "coordinates": [ 16.2605, 46.98921 ] } },
{ "type": "Feature", "properties": { "CityHun": "Rábaõr", "CityLoc": "Oberdrosen", "CountryName": "Austria", "CountryCode": "AT", "Latitude": 46.885657, "Longitude": 16.114981 }, "geometry": { "type": "Point", "coordinates": [ 16.114981, 46.885657 ] } },
{ "type": "Feature", "properties": { "CityHun": "Rábapatona", "CityLoc": "Rábapatona", "CountryName": "Hungary", "CountryCode": "HU", "Latitude": 47.631834, "Longitude": 17.48095 }, "geometry": { "type": "Point", "coordinates": [ 17.48095, 47.631834 ] } },
{ "type": "Feature", "properties": { "CityHun": "Rábapaty", "CityLoc": "Rábapaty", "CountryName": "Hungary", "CountryCode": "HU", "Latitude": 47.302802, "Longitude": 16.927879 }, "geometry": { "type": "Point", "coordinates": [ 16.927879, 47.302802 ] } },
{ "type": "Feature", "properties": { "CityHun": "Rábapordány", "CityLoc": "Rábapordány", "CountryName": "Hungary", "CountryCode": "HU", "Latitude": 47.55692, "Longitude": 17.322872 }, "geometry": { "type": "Point", "coordinates": [ 17.322872, 47.55692 ] } },
{ "type": "Feature", "properties": { "CityHun": "Rábasebes", "CityLoc": "Rábasebes", "CountryName": "Hungary", "CountryCode": "HU", "Latitude": 47.440281, "Longitude": 17.242945 }, "geometry": { "type": "Point", "coordinates": [ 17.242945, 47.440281 ] } },
{ "type": "Feature", "properties": { "CityHun": "Rábaszentandrás", "CityLoc": "Rábaszentandrás", "CountryName": "Hungary", "CountryCode": "HU", "Latitude": 47.460791, "Longitude": 17.33004 }, "geometry": { "type": "Point", "coordinates": [ 17.33004, 47.460791 ] } },
{ "type": "Feature", "properties": { "CityHun": "Rábaszentmárton", "CityLoc": "Sankt Martin an der Raab", "CountryName": "Austria", "CountryCode": "AT", "Latitude": 46.92011, "Longitude": 16.134687 }, "geometry": { "type": "Point", "coordinates": [ 16.134687, 46.92011 ] } },
{ "type": "Feature", "properties": { "CityHun": "Rábaszentmihály", "CityLoc": "Rábaszentmihály", "CountryName": "Hungary", "CountryCode": "HU", "Latitude": 47.578795, "Longitude": 17.433238 }, "geometry": { "type": "Point", "coordinates": [ 17.433238, 47.578795 ] } },
{ "type": "Feature", "properties": { "CityHun": "Rábaszentmiklós", "CityLoc": "Rábaszentmiklós", "CountryName": "Hungary", "CountryCode": "HU", "Latitude": 47.537918, "Longitude": 17.417115 }, "geometry": { "type": "Point", "coordinates": [ 17.417115, 47.537918 ] } },
{ "type": "Feature", "properties": { "CityHun": "Rábatamási", "CityLoc": "Rábatamási", "CountryName": "Hungary", "CountryCode": "HU", "Latitude": 47.588392, "Longitude": 17.169238 }, "geometry": { "type": "Point", "coordinates": [ 17.169238, 47.588392 ] } },
{ "type": "Feature", "properties": { "CityHun": "Rábatöttös", "CityLoc": "Rábatöttös", "CountryName": "Hungary", "CountryCode": "HU", "Latitude": 47.132245, "Longitude": 16.808694 }, "geometry": { "type": "Point", "coordinates": [ 16.808694, 47.132245 ] } },
{ "type": "Feature", "properties": { "CityHun": "Rábcakapi", "CityLoc": "Rábcakapi", "CountryName": "Hungary", "CountryCode": "HU", "Latitude": 47.708754, "Longitude": 17.275819 }, "geometry": { "type": "Point", "coordinates": [ 17.275819, 47.708754 ] } },
{ "type": "Feature", "properties": { "CityHun": "Sajó", "CityLoc": "ªieu", "CountryName": "Romania", "CountryCode": "RO", "Latitude": 47.001073, "Longitude": 24.608549 }, "geometry": { "type": "Point", "coordinates": [ 24.608549, 47.001073 ] } },
{ "type": "Feature", "properties": { "CityHun": "Sajóbábony", "CityLoc": "Sajóbábony", "CountryName": "Hungary", "CountryCode": "HU", "Latitude": 48.175009, "Longitude": 20.738632 }, "geometry": { "type": "Point", "coordinates": [ 20.738632, 48.175009 ] } },
{ "type": "Feature", "properties": { "CityHun": "Sajóecseg", "CityLoc": "Sajóecseg", "CountryName": "Hungary", "CountryCode": "HU", "Latitude": 48.191232, "Longitude": 20.775748 }, "geometry": { "type": "Point", "coordinates": [ 20.775748, 48.191232 ] } },
{ "type": "Feature", "properties": { "CityHun": "Sajófelsõsebes", "CityLoc": "Sebiº", "CountryName": "Romania", "CountryCode": "RO", "Latitude": 47.006154, "Longitude": 24.714853 }, "geometry": { "type": "Point", "coordinates": [ 24.714853, 47.006154 ] } },
{ "type": "Feature", "properties": { "CityHun": "Sajógalgóc", "CityLoc": "Sajógalgóc", "CountryName": "Hungary", "CountryCode": "HU", "Latitude": 48.29597, "Longitude": 20.531097 }, "geometry": { "type": "Point", "coordinates": [ 20.531097, 48.29597 ] } },
{ "type": "Feature", "properties": { "CityHun": "Sajógömör", "CityLoc": "Gemer", "CountryName": "Slovakia", "CountryCode": "SK", "Latitude": 48.45, "Longitude": 20.316667 }, "geometry": { "type": "Point", "coordinates": [ 20.316667, 48.45 ] } },
{ "type": "Feature", "properties": { "CityHun": "Sajóháza", "CityLoc": "Nadabula", "CountryName": "Slovakia", "CountryCode": "SK", "Latitude": 48.682228, "Longitude": 20.503045 }, "geometry": { "type": "Point", "coordinates": [ 20.503045, 48.682228 ] } },
{ "type": "Feature", "properties": { "CityHun": "Sajóhídvég", "CityLoc": "Sajóhídvég", "CountryName": "Hungary", "CountryCode": "HU", "Latitude": 48.003061, "Longitude": 20.950298 }, "geometry": { "type": "Point", "coordinates": [ 20.950298, 48.003061 ] } },
{ "type": "Feature", "properties": { "CityHun": "Sajóivánka", "CityLoc": "Sajóivánka", "CountryName": "Hungary", "CountryCode": "HU", "Latitude": 48.266106, "Longitude": 20.579371 }, "geometry": { "type": "Point", "coordinates": [ 20.579371, 48.266106 ] } },
{ "type": "Feature", "properties": { "CityHun": "Sajókápolna", "CityLoc": "Sajókápolna", "CountryName": "Hungary", "CountryCode": "HU", "Latitude": 48.196443, "Longitude": 20.680274 }, "geometry": { "type": "Point", "coordinates": [ 20.680274, 48.196443 ] } },
{ "type": "Feature", "properties": { "CityHun": "Sajókaza", "CityLoc": "Sajókaza", "CountryName": "Hungary", "CountryCode": "HU", "Latitude": 48.282463, "Longitude": 20.582985 }, "geometry": { "type": "Point", "coordinates": [ 20.582985, 48.282463 ] } },
{ "type": "Feature", "properties": { "CityHun": "Sajókeresztúr", "CityLoc": "Sajókeresztúr", "CountryName": "Hungary", "CountryCode": "HU", "Latitude": 48.169673, "Longitude": 20.776161 }, "geometry": { "type": "Point", "coordinates": [ 20.776161, 48.169673 ] } },
{ "type": "Feature", "properties": { "CityHun": "Sajókeszi", "CityLoc": "Kesovce", "CountryName": "Slovakia", "CountryCode": "SK", "Latitude": 48.375177, "Longitude": 20.354029 }, "geometry": { "type": "Point", "coordinates": [ 20.354029, 48.375177 ] } },
{ "type": "Feature", "properties": { "CityHun": "Sajókirályi", "CityLoc": "Králik", "CountryName": "Slovakia", "CountryCode": "SK", "Latitude": 48.41099, "Longitude": 20.318577 }, "geometry": { "type": "Point", "coordinates": [ 20.318577, 48.41099 ] } },
{ "type": "Feature", "properties": { "CityHun": "Sajólád", "CityLoc": "Sajólád", "CountryName": "Hungary", "CountryCode": "HU", "Latitude": 48.046666, "Longitude": 20.902488 }, "geometry": { "type": "Point", "coordinates": [ 20.902488, 48.046666 ] } },
{ "type": "Feature", "properties": { "CityHun": "Sajólászlófalva", "CityLoc": "Sajólászlófalva", "CountryName": "Hungary", "CountryCode": "HU", "Latitude": 48.184958, "Longitude": 20.674992 }, "geometry": { "type": "Point", "coordinates": [ 20.674992, 48.184958 ] } },
{ "type": "Feature", "properties": { "CityHun": "Sajólénártfalva", "CityLoc": "Lenartovce", "CountryName": "Slovakia", "CountryCode": "SK", "Latitude": 48.299912, "Longitude": 20.310626 }, "geometry": { "type": "Point", "coordinates": [ 20.310626, 48.299912 ] } },
{ "type": "Feature", "properties": { "CityHun": "Sajólenke", "CityLoc": "Lenka", "CountryName": "Slovakia", "CountryCode": "SK", "Latitude": 48.387095, "Longitude": 20.348402 }, "geometry": { "type": "Point", "coordinates": [ 20.348402, 48.387095 ] } },
{ "type": "Feature", "properties": { "CityHun": "Sajómagyarós", "CityLoc": "ªieu-Mãgheruº", "CountryName": "Romania", "CountryCode": "RO", "Latitude": 47.092079, "Longitude": 24.373169 }, "geometry": { "type": "Point", "coordinates": [ 24.373169, 47.092079 ] } },
{ "type": "Feature", "properties": { "CityHun": "Sajómercse", "CityLoc": "Sajómercse", "CountryName": "Hungary", "CountryCode": "HU", "Latitude": 48.245066, "Longitude": 20.413177 }, "geometry": { "type": "Point", "coordinates": [ 20.413177, 48.245066 ] } },
{ "type": "Feature", "properties": { "CityHun": "Sajómezõ", "CityLoc": "Poienile Izei", "CountryName": "Romania", "CountryCode": "RO", "Latitude": 47.70309, "Longitude": 24.112759 }, "geometry": { "type": "Point", "coordinates": [ 24.112759, 47.70309 ] } },
{ "type": "Feature", "properties": { "CityHun": "Sajónagyfalu", "CityLoc": "Mãriºelu", "CountryName": "Romania", "CountryCode": "RO", "Latitude": 47.011928, "Longitude": 24.508095 }, "geometry": { "type": "Point", "coordinates": [ 24.508095, 47.011928 ] } },
{ "type": "Feature", "properties": { "CityHun": "Sajónémeti", "CityLoc": "Sajónémeti", "CountryName": "Hungary", "CountryCode": "HU", "Latitude": 48.272149, "Longitude": 20.383905 }, "geometry": { "type": "Point", "coordinates": [ 20.383905, 48.272149 ] } },
{ "type": "Feature", "properties": { "CityHun": "Sajóörös", "CityLoc": "Sajóörös", "CountryName": "Hungary", "CountryCode": "HU", "Latitude": 47.951183, "Longitude": 21.022199 }, "geometry": { "type": "Point", "coordinates": [ 21.022199, 47.951183 ] } },
{ "type": "Feature", "properties": { "CityHun": "Sajópálfala", "CityLoc": "Sajópálfala", "CountryName": "Hungary", "CountryCode": "HU", "Latitude": 48.161481, "Longitude": 20.845423 }, "geometry": { "type": "Point", "coordinates": [ 20.845423, 48.161481 ] } },
{ "type": "Feature", "properties": { "CityHun": "Sajópetri", "CityLoc": "Sajópetri", "CountryName": "Hungary", "CountryCode": "HU", "Latitude": 48.037043, "Longitude": 20.890296 }, "geometry": { "type": "Point", "coordinates": [ 20.890296, 48.037043 ] } },
{ "type": "Feature", "properties": { "CityHun": "Sajópüspöki", "CityLoc": "Sajópüspöki", "CountryName": "Hungary", "CountryCode": "HU", "Latitude": 48.280336, "Longitude": 20.344565 }, "geometry": { "type": "Point", "coordinates": [ 20.344565, 48.280336 ] } },
{ "type": "Feature", "properties": { "CityHun": "Sajórecske", "CityLoc": "Rieèka", "CountryName": "Slovakia", "CountryCode": "SK", "Latitude": 48.339813, "Longitude": 20.331152 }, "geometry": { "type": "Point", "coordinates": [ 20.331152, 48.339813 ] } },
{ "type": "Feature", "properties": { "CityHun": "Sajóréde", "CityLoc": "Rejdová", "CountryName": "Slovakia", "CountryCode": "SK", "Latitude": 48.790747, "Longitude": 20.285695 }, "geometry": { "type": "Point", "coordinates": [ 20.285695, 48.790747 ] } },
{ "type": "Feature", "properties": { "CityHun": "Sajósárvár", "CityLoc": "ªirioara", "CountryName": "Romania", "CountryCode": "RO", "Latitude": 47.101993, "Longitude": 24.295032 }, "geometry": { "type": "Point", "coordinates": [ 24.295032, 47.101993 ] } },
{ "type": "Feature", "properties": { "CityHun": "Sajósebes", "CityLoc": "Ruºtior", "CountryName": "Romania", "CountryCode": "RO", "Latitude": 46.99317, "Longitude": 24.670798 }, "geometry": { "type": "Point", "coordinates": [ 24.670798, 46.99317 ] } },
{ "type": "Feature", "properties": { "CityHun": "Sajósenye", "CityLoc": "Sajósenye", "CountryName": "Hungary", "CountryCode": "HU", "Latitude": 48.195709, "Longitude": 20.819858 }, "geometry": { "type": "Point", "coordinates": [ 20.819858, 48.195709 ] } },
{ "type": "Feature", "properties": { "CityHun": "Sajósolymos", "CityLoc": "ªoimuº", "CountryName": "Romania", "CountryCode": "RO", "Latitude": 46.393877, "Longitude": 24.587032 }, "geometry": { "type": "Point", "coordinates": [ 24.587032, 46.393877 ] } },
{ "type": "Feature", "properties": { "CityHun": "Sajószárnya", "CityLoc": "Staròa", "CountryName": "Slovakia", "CountryCode": "SK", "Latitude": 48.440766, "Longitude": 20.350855 }, "geometry": { "type": "Point", "coordinates": [ 20.350855, 48.440766 ] } },
{ "type": "Feature", "properties": { "CityHun": "Sajószentandrás", "CityLoc": "ªieu-Sfântu", "CountryName": "Romania", "CountryCode": "RO", "Latitude": 47.145346, "Longitude": 24.30695 }, "geometry": { "type": "Point", "coordinates": [ 24.30695, 47.145346 ] } },
{ "type": "Feature", "properties": { "CityHun": "Sajószentiván", "CityLoc": "Sântioana", "CountryName": "Romania", "CountryCode": "RO", "Latitude": 46.283675, "Longitude": 24.551323 }, "geometry": { "type": "Point", "coordinates": [ 24.551323, 46.283675 ] } },
{ "type": "Feature", "properties": { "CityHun": "Sajószentkirály", "CityLoc": "Krá¾", "CountryName": "Slovakia", "CountryCode": "SK", "Latitude": 48.328217, "Longitude": 20.341457 }, "geometry": { "type": "Point", "coordinates": [ 20.341457, 48.328217 ] } },
{ "type": "Feature", "properties": { "CityHun": "Sajószentpéter", "CityLoc": "Sajószentpéter", "CountryName": "Hungary", "CountryCode": "HU", "Latitude": 48.218354, "Longitude": 20.708776 }, "geometry": { "type": "Point", "coordinates": [ 20.708776, 48.218354 ] } },
{ "type": "Feature", "properties": { "CityHun": "Sajószöged", "CityLoc": "Sajószöged", "CountryName": "Hungary", "CountryCode": "HU", "Latitude": 47.944745, "Longitude": 20.99233 }, "geometry": { "type": "Point", "coordinates": [ 20.99233, 47.944745 ] } },
{ "type": "Feature", "properties": { "CityHun": "Sajótiba", "CityLoc": "Tiba", "CountryName": "Slovakia", "CountryCode": "SK", "Latitude": 48.740855, "Longitude": 22.208246 }, "geometry": { "type": "Point", "coordinates": [ 22.208246, 48.740855 ] } },
{ "type": "Feature", "properties": { "CityHun": "Sajóudvarhely", "CityLoc": "ªieu-Odorhei", "CountryName": "Romania", "CountryCode": "RO", "Latitude": 47.152934, "Longitude": 24.291286 }, "geometry": { "type": "Point", "coordinates": [ 24.291286, 47.152934 ] } },
{ "type": "Feature", "properties": { "CityHun": "Sajóvámos", "CityLoc": "Sajóvámos", "CountryName": "Hungary", "CountryCode": "HU", "Latitude": 48.181926, "Longitude": 20.831239 }, "geometry": { "type": "Point", "coordinates": [ 20.831239, 48.181926 ] } },
{ "type": "Feature", "properties": { "CityHun": "Sajóvelezd", "CityLoc": "Sajóvelezd", "CountryName": "Hungary", "CountryCode": "HU", "Latitude": 48.273165, "Longitude": 20.461417 }, "geometry": { "type": "Point", "coordinates": [ 20.461417, 48.273165 ] } },
{ "type": "Feature", "properties": { "CityHun": "Tisza", "CityLoc": "Tisa", "CountryName": "Romania", "CountryCode": "RO", "Latitude": 45.135841, "Longitude": 26.320513 }, "geometry": { "type": "Point", "coordinates": [ 26.320513, 45.135841 ] } },
{ "type": "Feature", "properties": { "CityHun": "Tiszaadony", "CityLoc": "Tiszaadony", "CountryName": "Hungary", "CountryCode": "HU", "Latitude": 48.225176, "Longitude": 22.290529 }, "geometry": { "type": "Point", "coordinates": [ 22.290529, 48.225176 ] } },
{ "type": "Feature", "properties": { "CityHun": "Tiszaágtelek", "CityLoc": "Tiszaagtelek", "CountryName": "Ukraine", "CountryCode": "UA", "Latitude": 48.44286, "Longitude": 22.328101 }, "geometry": { "type": "Point", "coordinates": [ 22.328101, 48.44286 ] } },
{ "type": "Feature", "properties": { "CityHun": "Tiszaalpár", "CityLoc": "Tiszaalpár", "CountryName": "Hungary", "CountryCode": "HU", "Latitude": 46.821962, "Longitude": 19.989306 }, "geometry": { "type": "Point", "coordinates": [ 19.989306, 46.821962 ] } },
{ "type": "Feature", "properties": { "CityHun": "Tiszaásvány", "CityLoc": "Tiszaasvany", "CountryName": "Ukraine", "CountryCode": "UA", "Latitude": 48.424843, "Longitude": 22.251951 }, "geometry": { "type": "Point", "coordinates": [ 22.251951, 48.424843 ] } },
{ "type": "Feature", "properties": { "CityHun": "Tiszabábolna", "CityLoc": "Tiszabábolna", "CountryName": "Hungary", "CountryCode": "HU", "Latitude": 47.686774, "Longitude": 20.811774 }, "geometry": { "type": "Point", "coordinates": [ 20.811774, 47.686774 ] } },
{ "type": "Feature", "properties": { "CityHun": "Tiszabecs", "CityLoc": "Tiszabecs", "CountryName": "Hungary", "CountryCode": "HU", "Latitude": 48.095824, "Longitude": 22.811806 }, "geometry": { "type": "Point", "coordinates": [ 22.811806, 48.095824 ] } },
{ "type": "Feature", "properties": { "CityHun": "Tiszabercel", "CityLoc": "Tiszabercel", "CountryName": "Hungary", "CountryCode": "HU", "Latitude": 48.156524, "Longitude": 21.649389 }, "geometry": { "type": "Point", "coordinates": [ 21.649389, 48.156524 ] } },
{ "type": "Feature", "properties": { "CityHun": "Tiszabezdéd", "CityLoc": "Tiszabezdéd", "CountryName": "Hungary", "CountryCode": "HU", "Latitude": 48.364556, "Longitude": 22.150905 }, "geometry": { "type": "Point", "coordinates": [ 22.150905, 48.364556 ] } },
{ "type": "Feature", "properties": { "CityHun": "Tiszabogdány", "CityLoc": "Bohdan", "CountryName": "Ukraine", "CountryCode": "UA", "Latitude": 48.04287, "Longitude": 24.33746 }, "geometry": { "type": "Point", "coordinates": [ 24.33746, 48.04287 ] } },
{ "type": "Feature", "properties": { "CityHun": "Tiszaborkút", "CityLoc": "Kvaszi", "CountryName": "Ukraine", "CountryCode": "UA", "Latitude": 48.149598, "Longitude": 24.282444 }, "geometry": { "type": "Point", "coordinates": [ 24.282444, 48.149598 ] } },
{ "type": "Feature", "properties": { "CityHun": "Tiszabõ", "CityLoc": "Tiszabõ", "CountryName": "Hungary", "CountryCode": "HU", "Latitude": 47.309023, "Longitude": 20.485289 }, "geometry": { "type": "Point", "coordinates": [ 20.485289, 47.309023 ] } },
{ "type": "Feature", "properties": { "CityHun": "Tiszabökény", "CityLoc": "Bobove", "CountryName": "Ukraine", "CountryCode": "UA", "Latitude": 48.118406, "Longitude": 23.678503 }, "geometry": { "type": "Point", "coordinates": [ 23.678503, 48.118406 ] } },
{ "type": "Feature", "properties": { "CityHun": "Tiszabura", "CityLoc": "Tiszabura", "CountryName": "Hungary", "CountryCode": "HU", "Latitude": 47.446639, "Longitude": 20.457779 }, "geometry": { "type": "Point", "coordinates": [ 20.457779, 47.446639 ] } },
{ "type": "Feature", "properties": { "CityHun": "Tiszacsécse", "CityLoc": "Tiszacsécse", "CountryName": "Hungary", "CountryCode": "HU", "Latitude": 48.109661, "Longitude": 22.744604 }, "geometry": { "type": "Point", "coordinates": [ 22.744604, 48.109661 ] } },
{ "type": "Feature", "properties": { "CityHun": "Tiszacsege", "CityLoc": "Tiszacsege", "CountryName": "Hungary", "CountryCode": "HU", "Latitude": 47.697548, "Longitude": 20.993597 }, "geometry": { "type": "Point", "coordinates": [ 20.993597, 47.697548 ] } },
{ "type": "Feature", "properties": { "CityHun": "Tiszacsermely", "CityLoc": "Tiszacsermely", "CountryName": "Hungary", "CountryCode": "HU", "Latitude": 48.233447, "Longitude": 21.799582 }, "geometry": { "type": "Point", "coordinates": [ 21.799582, 48.233447 ] } },
{ "type": "Feature", "properties": { "CityHun": "Tiszacsernyõ", "CityLoc": "Èierna nad Tisou", "CountryName": "Slovakia", "CountryCode": "SK", "Latitude": 48.418391, "Longitude": 22.081914 }, "geometry": { "type": "Point", "coordinates": [ 22.081914, 48.418391 ] } },
{ "type": "Feature", "properties": { "CityHun": "Tiszacsoma", "CityLoc": "Csoma", "CountryName": "Ukraine", "CountryCode": "UA", "Latitude": 48.136659, "Longitude": 22.632584 }, "geometry": { "type": "Point", "coordinates": [ 22.632584, 48.136659 ] } },
{ "type": "Feature", "properties": { "CityHun": "Tiszadada", "CityLoc": "Tiszadada", "CountryName": "Hungary", "CountryCode": "HU", "Latitude": 48.030817, "Longitude": 21.236601 }, "geometry": { "type": "Point", "coordinates": [ 21.236601, 48.030817 ] } },
{ "type": "Feature", "properties": { "CityHun": "Tiszaderzs", "CityLoc": "Tiszaderzs", "CountryName": "Hungary", "CountryCode": "HU", "Latitude": 47.513218, "Longitude": 20.642132 }, "geometry": { "type": "Point", "coordinates": [ 20.642132, 47.513218 ] } },
{ "type": "Feature", "properties": { "CityHun": "Tiszadob", "CityLoc": "Tiszadob", "CountryName": "Hungary", "CountryCode": "HU", "Latitude": 48.009477, "Longitude": 21.166844 }, "geometry": { "type": "Point", "coordinates": [ 21.166844, 48.009477 ] } },
{ "type": "Feature", "properties": { "CityHun": "Tiszadorogma", "CityLoc": "Tiszadorogma", "CountryName": "Hungary", "CountryCode": "HU", "Latitude": 47.681991, "Longitude": 20.862767 }, "geometry": { "type": "Point", "coordinates": [ 20.862767, 47.681991 ] } },
{ "type": "Feature", "properties": { "CityHun": "Tiszaeszlár", "CityLoc": "Tiszaeszlár", "CountryName": "Hungary", "CountryCode": "HU", "Latitude": 48.042431, "Longitude": 21.45668 }, "geometry": { "type": "Point", "coordinates": [ 21.45668, 48.042431 ] } },
{ "type": "Feature", "properties": { "CityHun": "Tiszafa", "CityLoc": "Eibenthal", "CountryName": "Romania", "CountryCode": "RO", "Latitude": 44.545018, "Longitude": 22.164342 }, "geometry": { "type": "Point", "coordinates": [ 22.164342, 44.545018 ] } },
{ "type": "Feature", "properties": { "CityHun": "Tiszafalva", "CityLoc": "Tisa", "CountryName": "Romania", "CountryCode": "RO", "Latitude": 45.135841, "Longitude": 26.320513 }, "geometry": { "type": "Point", "coordinates": [ 26.320513, 45.135841 ] } },
{ "type": "Feature", "properties": { "CityHun": "Szuszkó", "CityLoc": "Szuszkove", "CountryName": "Ukraine", "CountryCode": "UA", "Latitude": 0.0, "Longitude": 0.0 }, "geometry": { "type": "Point", "coordinates": [ 0.0, 0.0 ] } },
{ "type": "Feature", "properties": { "CityHun": "Tiszafejéregyház", "CityLoc": "Bila Cerkva", "CountryName": "Ukraine", "CountryCode": "UA", "Latitude": 49.803819, "Longitude": 30.111692 }, "geometry": { "type": "Point", "coordinates": [ 30.111692, 49.803819 ] } },
{ "type": "Feature", "properties": { "CityHun": "Tiszafejéregyháza", "CityLoc": "Bila Cerkva", "CountryName": "Ukraine", "CountryCode": "UA", "Latitude": 49.803819, "Longitude": 30.111692 }, "geometry": { "type": "Point", "coordinates": [ 30.111692, 49.803819 ] } },
{ "type": "Feature", "properties": { "CityHun": "Tiszaföldvár", "CityLoc": "Tiszaföldvár", "CountryName": "Hungary", "CountryCode": "HU", "Latitude": 46.980354, "Longitude": 20.254117 }, "geometry": { "type": "Point", "coordinates": [ 20.254117, 46.980354 ] } },
{ "type": "Feature", "properties": { "CityHun": "Tiszafüred", "CityLoc": "Tiszafüred", "CountryName": "Hungary", "CountryCode": "HU", "Latitude": 47.613088, "Longitude": 20.750226 }, "geometry": { "type": "Point", "coordinates": [ 20.750226, 47.613088 ] } },
{ "type": "Feature", "properties": { "CityHun": "Tiszafüredi ", "CityLoc": "Tiszafüredi ", "CountryName": "Hungary", "CountryCode": "HU", "Latitude": 47.558738, "Longitude": 20.831376 }, "geometry": { "type": "Point", "coordinates": [ 20.831376, 47.558738 ] } },
{ "type": "Feature", "properties": { "CityHun": "Tiszagyenda", "CityLoc": "Tiszagyenda", "CountryName": "Hungary", "CountryCode": "HU", "Latitude": 47.378726, "Longitude": 20.512039 }, "geometry": { "type": "Point", "coordinates": [ 20.512039, 47.378726 ] } },
{ "type": "Feature", "properties": { "CityHun": "Tiszagyulaháza", "CityLoc": "Tiszagyulaháza", "CountryName": "Hungary", "CountryCode": "HU", "Latitude": 47.943088, "Longitude": 21.141303 }, "geometry": { "type": "Point", "coordinates": [ 21.141303, 47.943088 ] } },
{ "type": "Feature", "properties": { "CityHun": "Tiszahegyes", "CityLoc": "Idjoš", "CountryName": "Serbia", "CountryCode": "RS", "Latitude": 45.830517, "Longitude": 20.31654 }, "geometry": { "type": "Point", "coordinates": [ 20.31654, 45.830517 ] } },
{ "type": "Feature", "properties": { "CityHun": "Tiszahetény", "CityLoc": "Hetinya", "CountryName": "Ukraine", "CountryCode": "UA", "Latitude": 48.088087, "Longitude": 23.014799 }, "geometry": { "type": "Point", "coordinates": [ 23.014799, 48.088087 ] } },
{ "type": "Feature", "properties": { "CityHun": "Tiszaigar", "CityLoc": "Tiszaigar", "CountryName": "Hungary", "CountryCode": "HU", "Latitude": 47.535376, "Longitude": 20.79997 }, "geometry": { "type": "Point", "coordinates": [ 20.79997, 47.535376 ] } },
{ "type": "Feature", "properties": { "CityHun": "Tiszainoka", "CityLoc": "Tiszainoka", "CountryName": "Hungary", "CountryCode": "HU", "Latitude": 46.906099, "Longitude": 20.152249 }, "geometry": { "type": "Point", "coordinates": [ 20.152249, 46.906099 ] } },
{ "type": "Feature", "properties": { "CityHun": "Tiszaistvánfalva", "CityLoc": "Baèki Jarak", "CountryName": "Serbia", "CountryCode": "RS", "Latitude": 45.370012, "Longitude": 19.876121 }, "geometry": { "type": "Point", "coordinates": [ 19.876121, 45.370012 ] } },
{ "type": "Feature", "properties": { "CityHun": "Tiszajenõ", "CityLoc": "Tiszajenõ", "CountryName": "Hungary", "CountryCode": "HU", "Latitude": 47.031176, "Longitude": 20.141583 }, "geometry": { "type": "Point", "coordinates": [ 20.141583, 47.031176 ] } },
{ "type": "Feature", "properties": { "CityHun": "Tiszakálmánfalva", "CityLoc": "Budisava", "CountryName": "Serbia", "CountryCode": "RS", "Latitude": 45.281184, "Longitude": 19.992638 }, "geometry": { "type": "Point", "coordinates": [ 19.992638, 45.281184 ] } },
{ "type": "Feature", "properties": { "CityHun": "Tiszakanyár", "CityLoc": "Tiszakanyár", "CountryName": "Hungary", "CountryCode": "HU", "Latitude": 48.247962, "Longitude": 21.961943 }, "geometry": { "type": "Point", "coordinates": [ 21.961943, 48.247962 ] } },
{ "type": "Feature", "properties": { "CityHun": "Tiszakarácsonyfalva", "CityLoc": "Crãciuneºti", "CountryName": "Romania", "CountryCode": "RO", "Latitude": 46.4773, "Longitude": 24.575241 }, "geometry": { "type": "Point", "coordinates": [ 24.575241, 46.4773 ] } },
{ "type": "Feature", "properties": { "CityHun": "Tiszakarád", "CityLoc": "Tiszakarád", "CountryName": "Hungary", "CountryCode": "HU", "Latitude": 48.202841, "Longitude": 21.720018 }, "geometry": { "type": "Point", "coordinates": [ 21.720018, 48.202841 ] } },
{ "type": "Feature", "properties": { "CityHun": "Tiszakécske", "CityLoc": "Tiszakécske", "CountryName": "Hungary", "CountryCode": "HU", "Latitude": 46.931529, "Longitude": 20.104536 }, "geometry": { "type": "Point", "coordinates": [ 20.104536, 46.931529 ] } },
{ "type": "Feature", "properties": { "CityHun": "Tiszakécskei ", "CityLoc": "Tiszakécskei ", "CountryName": "Hungary", "CountryCode": "HU", "Latitude": 46.872499, "Longitude": 20.009498 }, "geometry": { "type": "Point", "coordinates": [ 20.009498, 46.872499 ] } },
{ "type": "Feature", "properties": { "CityHun": "Tiszakerecseny", "CityLoc": "Tiszakerecseny", "CountryName": "Hungary", "CountryCode": "HU", "Latitude": 48.258709, "Longitude": 22.300093 }, "geometry": { "type": "Point", "coordinates": [ 22.300093, 48.258709 ] } },
{ "type": "Feature", "properties": { "CityHun": "Tiszakeresztúr", "CityLoc": "Perehresztya", "CountryName": "Ukraine", "CountryCode": "UA", "Latitude": 48.135861, "Longitude": 22.837335 }, "geometry": { "type": "Point", "coordinates": [ 22.837335, 48.135861 ] } },
{ "type": "Feature", "properties": { "CityHun": "Tiszakeszi", "CityLoc": "Tiszakeszi", "CountryName": "Hungary", "CountryCode": "HU", "Latitude": 47.788244, "Longitude": 20.99451 }, "geometry": { "type": "Point", "coordinates": [ 20.99451, 47.788244 ] } },
{ "type": "Feature", "properties": { "CityHun": "Tiszakirva", "CityLoc": "Kriva", "CountryName": "Ukraine", "CountryCode": "UA", "Latitude": 48.908058, "Longitude": 24.036914 }, "geometry": { "type": "Point", "coordinates": [ 24.036914, 48.908058 ] } },
{ "type": "Feature", "properties": { "CityHun": "Tiszakóród", "CityLoc": "Tiszakóród", "CountryName": "Hungary", "CountryCode": "HU", "Latitude": 48.106271, "Longitude": 22.711602 }, "geometry": { "type": "Point", "coordinates": [ 22.711602, 48.106271 ] } },
{ "type": "Feature", "properties": { "CityHun": "Tiszakürt", "CityLoc": "Tiszakürt", "CountryName": "Hungary", "CountryCode": "HU", "Latitude": 46.886862, "Longitude": 20.127701 }, "geometry": { "type": "Point", "coordinates": [ 20.127701, 46.886862 ] } },
{ "type": "Feature", "properties": { "CityHun": "Tiszaladány", "CityLoc": "Tiszaladány", "CountryName": "Hungary", "CountryCode": "HU", "Latitude": 48.06498, "Longitude": 21.41367 }, "geometry": { "type": "Point", "coordinates": [ 21.41367, 48.06498 ] } },
{ "type": "Feature", "properties": { "CityHun": "Tiszaló", "CityLoc": "Tiszolove", "CountryName": "Ukraine", "CountryCode": "UA", "Latitude": 48.137131, "Longitude": 23.777472 }, "geometry": { "type": "Point", "coordinates": [ 23.777472, 48.137131 ] } },
{ "type": "Feature", "properties": { "CityHun": "Tiszalonka", "CityLoc": "Luh", "CountryName": "Ukraine", "CountryCode": "UA", "Latitude": 50.18383, "Longitude": 23.5746 }, "geometry": { "type": "Point", "coordinates": [ 23.5746, 50.18383 ] } },
{ "type": "Feature", "properties": { "CityHun": "Tiszalonka", "CityLoc": "Luh", "CountryName": "Ukraine", "CountryCode": "UA", "Latitude": 50.18383, "Longitude": 23.5746 }, "geometry": { "type": "Point", "coordinates": [ 23.5746, 50.18383 ] } },
{ "type": "Feature", "properties": { "CityHun": "Tiszalök", "CityLoc": "Tiszalök", "CountryName": "Hungary", "CountryCode": "HU", "Latitude": 48.018714, "Longitude": 21.376234 }, "geometry": { "type": "Point", "coordinates": [ 21.376234, 48.018714 ] } },
{ "type": "Feature", "properties": { "CityHun": "Tiszalúc", "CityLoc": "Tiszalúc", "CountryName": "Hungary", "CountryCode": "HU", "Latitude": 48.034586, "Longitude": 21.063054 }, "geometry": { "type": "Point", "coordinates": [ 21.063054, 48.034586 ] } },
{ "type": "Feature", "properties": { "CityHun": "Tiszamogyorós", "CityLoc": "Tiszamogyorós", "CountryName": "Hungary", "CountryCode": "HU", "Latitude": 48.320442, "Longitude": 22.231294 }, "geometry": { "type": "Point", "coordinates": [ 22.231294, 48.320442 ] } },
{ "type": "Feature", "properties": { "CityHun": "Tiszanagyfalu", "CityLoc": "Tiszanagyfalu", "CountryName": "Hungary", "CountryCode": "HU", "Latitude": 48.093524, "Longitude": 21.470518 }, "geometry": { "type": "Point", "coordinates": [ 21.470518, 48.093524 ] } },
{ "type": "Feature", "properties": { "CityHun": "Tiszanána", "CityLoc": "Tiszanána", "CountryName": "Hungary", "CountryCode": "HU", "Latitude": 47.55648, "Longitude": 20.529296 }, "geometry": { "type": "Point", "coordinates": [ 20.529296, 47.55648 ] } },
{ "type": "Feature", "properties": { "CityHun": "Tiszaörs", "CityLoc": "Tiszaörs", "CountryName": "Hungary", "CountryCode": "HU", "Latitude": 47.508044, "Longitude": 20.820126 }, "geometry": { "type": "Point", "coordinates": [ 20.820126, 47.508044 ] } },
{ "type": "Feature", "properties": { "CityHun": "Tiszapalkonya", "CityLoc": "Tiszapalkonya", "CountryName": "Hungary", "CountryCode": "HU", "Latitude": 47.886469, "Longitude": 21.054568 }, "geometry": { "type": "Point", "coordinates": [ 21.054568, 47.886469 ] } },
{ "type": "Feature", "properties": { "CityHun": "Tiszapéterfalva", "CityLoc": "Petrove", "CountryName": "Ukraine", "CountryCode": "UA", "Latitude": 48.33607, "Longitude": 33.26626 }, "geometry": { "type": "Point", "coordinates": [ 33.26626, 48.33607 ] } },
{ "type": "Feature", "properties": { "CityHun": "Tiszapüspöki", "CityLoc": "Tiszapüspöki", "CountryName": "Hungary", "CountryCode": "HU", "Latitude": 47.214534, "Longitude": 20.317297 }, "geometry": { "type": "Point", "coordinates": [ 20.317297, 47.214534 ] } },
{ "type": "Feature", "properties": { "CityHun": "Tiszarád", "CityLoc": "Tiszarád", "CountryName": "Hungary", "CountryCode": "HU", "Latitude": 48.121808, "Longitude": 21.797032 }, "geometry": { "type": "Point", "coordinates": [ 21.797032, 48.121808 ] } },
{ "type": "Feature", "properties": { "CityHun": "Tiszaroff", "CityLoc": "Tiszaroff", "CountryName": "Hungary", "CountryCode": "HU", "Latitude": 47.397996, "Longitude": 20.438295 }, "geometry": { "type": "Point", "coordinates": [ 20.438295, 47.397996 ] } },
{ "type": "Feature", "properties": { "CityHun": "Tiszasalamon", "CityLoc": "Szolomonove", "CountryName": "Ukraine", "CountryCode": "UA", "Latitude": 48.431947, "Longitude": 22.162155 }, "geometry": { "type": "Point", "coordinates": [ 22.162155, 48.431947 ] } },
{ "type": "Feature", "properties": { "CityHun": "Tiszasas", "CityLoc": "Tiszasas", "CountryName": "Hungary", "CountryCode": "HU", "Latitude": 46.821114, "Longitude": 20.07996 }, "geometry": { "type": "Point", "coordinates": [ 20.07996, 46.821114 ] } },
{ "type": "Feature", "properties": { "CityHun": "Tiszasásvár", "CityLoc": "Trosznik", "CountryName": "Ukraine", "CountryCode": "UA", "Latitude": 48.098854, "Longitude": 22.948212 }, "geometry": { "type": "Point", "coordinates": [ 22.948212, 48.098854 ] } },
{ "type": "Feature", "properties": { "CityHun": "Tiszasüly", "CityLoc": "Tiszasüly", "CountryName": "Hungary", "CountryCode": "HU", "Latitude": 47.391533, "Longitude": 20.392582 }, "geometry": { "type": "Point", "coordinates": [ 20.392582, 47.391533 ] } },
{ "type": "Feature", "properties": { "CityHun": "Tiszaszalka", "CityLoc": "Tiszaszalka", "CountryName": "Hungary", "CountryCode": "HU", "Latitude": 48.186343, "Longitude": 22.314873 }, "geometry": { "type": "Point", "coordinates": [ 22.314873, 48.186343 ] } },
{ "type": "Feature", "properties": { "CityHun": "Tiszaszászfalu", "CityLoc": "Szaszove", "CountryName": "Ukraine", "CountryCode": "UA", "Latitude": 48.089789, "Longitude": 23.080986 }, "geometry": { "type": "Point", "coordinates": [ 23.080986, 48.089789 ] } },
{ "type": "Feature", "properties": { "CityHun": "Tiszaszentimre", "CityLoc": "Tiszaszentimre", "CountryName": "Hungary", "CountryCode": "HU", "Latitude": 47.491398, "Longitude": 20.723366 }, "geometry": { "type": "Point", "coordinates": [ 20.723366, 47.491398 ] } },
{ "type": "Feature", "properties": { "CityHun": "Tiszaszentmárton", "CityLoc": "Tiszaszentmárton", "CountryName": "Hungary", "CountryCode": "HU", "Latitude": 48.375922, "Longitude": 22.233402 }, "geometry": { "type": "Point", "coordinates": [ 22.233402, 48.375922 ] } },
{ "type": "Feature", "properties": { "CityHun": "Tiszaszentmiklós", "CityLoc": "Ostojiæevo", "CountryName": "Serbia", "CountryCode": "RS", "Latitude": 45.889793, "Longitude": 20.167689 }, "geometry": { "type": "Point", "coordinates": [ 20.167689, 45.889793 ] } },
{ "type": "Feature", "properties": { "CityHun": "Tiszasziget", "CityLoc": "Tiszasziget", "CountryName": "Hungary", "CountryCode": "HU", "Latitude": 46.17477, "Longitude": 20.162133 }, "geometry": { "type": "Point", "coordinates": [ 20.162133, 46.17477 ] } },
{ "type": "Feature", "properties": { "CityHun": "Tiszaszirma", "CityLoc": "Drotinci", "CountryName": "Ukraine", "CountryCode": "UA", "Latitude": 48.107124, "Longitude": 22.986582 }, "geometry": { "type": "Point", "coordinates": [ 22.986582, 48.107124 ] } },
{ "type": "Feature", "properties": { "CityHun": "Tiszaszõlõs", "CityLoc": "Tiszaszõlõs", "CountryName": "Hungary", "CountryCode": "HU", "Latitude": 47.556243, "Longitude": 20.719662 }, "geometry": { "type": "Point", "coordinates": [ 20.719662, 47.556243 ] } },
{ "type": "Feature", "properties": { "CityHun": "Szuszkóújfalu", "CityLoc": "Szuszkove Nove Szelo", "CountryName": "Ukraine", "CountryCode": "UA", "Latitude": 0.0, "Longitude": 0.0 }, "geometry": { "type": "Point", "coordinates": [ 0.0, 0.0 ] } },
{ "type": "Feature", "properties": { "CityHun": "Tiszatardos", "CityLoc": "Tiszatardos", "CountryName": "Hungary", "CountryCode": "HU", "Latitude": 48.040777, "Longitude": 21.379409 }, "geometry": { "type": "Point", "coordinates": [ 21.379409, 48.040777 ] } },
{ "type": "Feature", "properties": { "CityHun": "Tiszatarján", "CityLoc": "Tiszatarján", "CountryName": "Hungary", "CountryCode": "HU", "Latitude": 47.834612, "Longitude": 21.001051 }, "geometry": { "type": "Point", "coordinates": [ 21.001051, 47.834612 ] } },
{ "type": "Feature", "properties": { "CityHun": "Tiszatarrós", "CityLoc": "Taraš", "CountryName": "Serbia", "CountryCode": "RS", "Latitude": 45.466548, "Longitude": 20.200535 }, "geometry": { "type": "Point", "coordinates": [ 20.200535, 45.466548 ] } },
{ "type": "Feature", "properties": { "CityHun": "Tiszatelek", "CityLoc": "Tiszatelek", "CountryName": "Hungary", "CountryCode": "HU", "Latitude": 48.192136, "Longitude": 21.795131 }, "geometry": { "type": "Point", "coordinates": [ 21.795131, 48.192136 ] } },
{ "type": "Feature", "properties": { "CityHun": "Tiszatenyõ", "CityLoc": "Tiszatenyõ", "CountryName": "Hungary", "CountryCode": "HU", "Latitude": 47.135987, "Longitude": 20.379758 }, "geometry": { "type": "Point", "coordinates": [ 20.379758, 47.135987 ] } },
{ "type": "Feature", "properties": { "CityHun": "Tiszaug", "CityLoc": "Tiszaug", "CountryName": "Hungary", "CountryCode": "HU", "Latitude": 46.851687, "Longitude": 20.057935 }, "geometry": { "type": "Point", "coordinates": [ 20.057935, 46.851687 ] } },
{ "type": "Feature", "properties": { "CityHun": "Tiszaújfalu", "CityLoc": "Tiszaujfalu", "CountryName": "Ukraine", "CountryCode": "UA", "Latitude": 48.414985, "Longitude": 22.275072 }, "geometry": { "type": "Point", "coordinates": [ 22.275072, 48.414985 ] } },
{ "type": "Feature", "properties": { "CityHun": "Tiszaújhely", "CityLoc": "Nove Szelo", "CountryName": "Ukraine", "CountryCode": "UA", "Latitude": 48.119927, "Longitude": 22.888398 }, "geometry": { "type": "Point", "coordinates": [ 22.888398, 48.119927 ] } },
{ "type": "Feature", "properties": { "CityHun": "Tiszaújlak", "CityLoc": "Vilok", "CountryName": "Ukraine", "CountryCode": "UA", "Latitude": 48.111205, "Longitude": 22.837459 }, "geometry": { "type": "Point", "coordinates": [ 22.837459, 48.111205 ] } },
{ "type": "Feature", "properties": { "CityHun": "Tiszaújváros", "CityLoc": "Tiszaújváros", "CountryName": "Hungary", "CountryCode": "HU", "Latitude": 47.928034, "Longitude": 21.046706 }, "geometry": { "type": "Point", "coordinates": [ 21.046706, 47.928034 ] } },
{ "type": "Feature", "properties": { "CityHun": "Tiszaújvárosi ", "CityLoc": "Tiszaújvárosi ", "CountryName": "Hungary", "CountryCode": "HU", "Latitude": 47.926394, "Longitude": 20.973058 }, "geometry": { "type": "Point", "coordinates": [ 20.973058, 47.926394 ] } },
{ "type": "Feature", "properties": { "CityHun": "Tiszavalk", "CityLoc": "Tiszavalk", "CountryName": "Hungary", "CountryCode": "HU", "Latitude": 47.689564, "Longitude": 20.750462 }, "geometry": { "type": "Point", "coordinates": [ 20.750462, 47.689564 ] } },
{ "type": "Feature", "properties": { "CityHun": "Tiszavárkony", "CityLoc": "Tiszavárkony", "CountryName": "Hungary", "CountryCode": "HU", "Latitude": 47.067587, "Longitude": 20.177215 }, "geometry": { "type": "Point", "coordinates": [ 20.177215, 47.067587 ] } },
{ "type": "Feature", "properties": { "CityHun": "Tiszavasvári", "CityLoc": "Tiszavasvári", "CountryName": "Hungary", "CountryCode": "HU", "Latitude": 47.956964, "Longitude": 21.368455 }, "geometry": { "type": "Point", "coordinates": [ 21.368455, 47.956964 ] } },
{ "type": "Feature", "properties": { "CityHun": "Tiszavasvári ", "CityLoc": "Tiszavasvári ", "CountryName": "Hungary", "CountryCode": "HU", "Latitude": 47.956964, "Longitude": 21.368455 }, "geometry": { "type": "Point", "coordinates": [ 21.368455, 47.956964 ] } },
{ "type": "Feature", "properties": { "CityHun": "Tiszaveresmart", "CityLoc": "Tisa", "CountryName": "Romania", "CountryCode": "RO", "Latitude": 45.135841, "Longitude": 26.320513 }, "geometry": { "type": "Point", "coordinates": [ 26.320513, 45.135841 ] } },
{ "type": "Feature", "properties": { "CityHun": "Tiszavid", "CityLoc": "Tiszavid", "CountryName": "Hungary", "CountryCode": "HU", "Latitude": 48.194809, "Longitude": 22.294551 }, "geometry": { "type": "Point", "coordinates": [ 22.294551, 48.194809 ] } },
{ "type": "Feature", "properties": { "CityHun": "Újbodrog", "CityLoc": "Bodrogu Nou", "CountryName": "Romania", "CountryCode": "RO", "Latitude": 46.128116, "Longitude": 21.197971 }, "geometry": { "type": "Point", "coordinates": [ 21.197971, 46.128116 ] } },
{ "type": "Feature", "properties": { "CityHun": "Újszagyva", "CityLoc": "Sadova Nouã", "CountryName": "Romania", "CountryCode": "RO", "Latitude": 45.256866, "Longitude": 22.345538 }, "geometry": { "type": "Point", "coordinates": [ 22.345538, 45.256866 ] } },
{ "type": "Feature", "properties": { "CityHun": "Vága", "CityLoc": "Váhovce", "CountryName": "Slovakia", "CountryCode": "SK", "Latitude": 48.25, "Longitude": 17.783333 }, "geometry": { "type": "Point", "coordinates": [ 17.783333, 48.25 ] } },
{ "type": "Feature", "properties": { "CityHun": "Vágagyagos", "CityLoc": "Hliník nad Váhom", "CountryName": "Slovakia", "CountryCode": "SK", "Latitude": 49.233768, "Longitude": 18.577441 }, "geometry": { "type": "Point", "coordinates": [ 18.577441, 49.233768 ] } },
{ "type": "Feature", "properties": { "CityHun": "Vágalja", "CityLoc": "Podvažie", "CountryName": "Slovakia", "CountryCode": "SK", "Latitude": 49.168001, "Longitude": 18.470539 }, "geometry": { "type": "Point", "coordinates": [ 18.470539, 49.168001 ] } },
{ "type": "Feature", "properties": { "CityHun": "Vágapátfalva", "CityLoc": "Opatová", "CountryName": "Slovakia", "CountryCode": "SK", "Latitude": 48.914093, "Longitude": 18.093683 }, "geometry": { "type": "Point", "coordinates": [ 18.093683, 48.914093 ] } },
{ "type": "Feature", "properties": { "CityHun": "Vágapáti", "CityLoc": "Opatovce", "CountryName": "Slovakia", "CountryCode": "SK", "Latitude": 48.858861, "Longitude": 17.977853 }, "geometry": { "type": "Point", "coordinates": [ 17.977853, 48.858861 ] } },
{ "type": "Feature", "properties": { "CityHun": "Vágaranyos", "CityLoc": "Zlatovce", "CountryName": "Slovakia", "CountryCode": "SK", "Latitude": 48.900642, "Longitude": 18.021994 }, "geometry": { "type": "Point", "coordinates": [ 18.021994, 48.900642 ] } },
{ "type": "Feature", "properties": { "CityHun": "Vágbánya", "CityLoc": "Bohunice", "CountryName": "Slovakia", "CountryCode": "SK", "Latitude": 48.333485, "Longitude": 18.75148 }, "geometry": { "type": "Point", "coordinates": [ 18.75148, 48.333485 ] } },
{ "type": "Feature", "properties": { "CityHun": "Ungdaróc", "CityLoc": "Dravci", "CountryName": "Ukraine", "CountryCode": "UA", "Latitude": 0.0, "Longitude": 0.0 }, "geometry": { "type": "Point", "coordinates": [ 0.0, 0.0 ] } },
{ "type": "Feature", "properties": { "CityHun": "Vágbeszterce", "CityLoc": "Považská Bystrica", "CountryName": "Slovakia", "CountryCode": "SK", "Latitude": 49.121743, "Longitude": 18.45638 }, "geometry": { "type": "Point", "coordinates": [ 18.45638, 49.121743 ] } },
{ "type": "Feature", "properties": { "CityHun": "Vágbori", "CityLoc": "Borovce", "CountryName": "Slovakia", "CountryCode": "SK", "Latitude": 48.574182, "Longitude": 17.745565 }, "geometry": { "type": "Point", "coordinates": [ 17.745565, 48.574182 ] } },
{ "type": "Feature", "properties": { "CityHun": "Vágcsütörtök", "CityLoc": "Štvrtok", "CountryName": "Slovakia", "CountryCode": "SK", "Latitude": 48.816633, "Longitude": 17.883306 }, "geometry": { "type": "Point", "coordinates": [ 17.883306, 48.816633 ] } },
{ "type": "Feature", "properties": { "CityHun": "Vágdebrõd", "CityLoc": "Drahovce", "CountryName": "Slovakia", "CountryCode": "SK", "Latitude": 48.518346, "Longitude": 17.798505 }, "geometry": { "type": "Point", "coordinates": [ 17.798505, 48.518346 ] } },
{ "type": "Feature", "properties": { "CityHun": "Vágegyháza", "CityLoc": "Kostolná-Žárieèie", "CountryName": "Slovakia", "CountryCode": "SK", "Latitude": 48.879038, "Longitude": 17.968156 }, "geometry": { "type": "Point", "coordinates": [ 17.968156, 48.879038 ] } },
{ "type": "Feature", "properties": { "CityHun": "Vágerdõalja", "CityLoc": "Podhorie", "CountryName": "Slovakia", "CountryCode": "SK", "Latitude": 49.174113, "Longitude": 18.636236 }, "geometry": { "type": "Point", "coordinates": [ 18.636236, 49.174113 ] } },
{ "type": "Feature", "properties": { "CityHun": "Vágfarkasd", "CityLoc": "Vlèany", "CountryName": "Slovakia", "CountryCode": "SK", "Latitude": 48.037764, "Longitude": 17.952651 }, "geometry": { "type": "Point", "coordinates": [ 17.952651, 48.037764 ] } },
{ "type": "Feature", "properties": { "CityHun": "Vágfüzes", "CityLoc": "Vrbová nad Váhom", "CountryName": "Slovakia", "CountryCode": "SK", "Latitude": 47.849508, "Longitude": 18.049758 }, "geometry": { "type": "Point", "coordinates": [ 18.049758, 47.849508 ] } },
{ "type": "Feature", "properties": { "CityHun": "Vághegy", "CityLoc": "Hackerberg", "CountryName": "Austria", "CountryCode": "AT", "Latitude": 47.195502, "Longitude": 16.107116 }, "geometry": { "type": "Point", "coordinates": [ 16.107116, 47.195502 ] } },
{ "type": "Feature", "properties": { "CityHun": "Vághegyes", "CityLoc": "Zástranie", "CountryName": "Slovakia", "CountryCode": "SK", "Latitude": 49.241115, "Longitude": 18.815756 }, "geometry": { "type": "Point", "coordinates": [ 18.815756, 49.241115 ] } },
{ "type": "Feature", "properties": { "CityHun": "Vághéve", "CityLoc": "Považská Teplá", "CountryName": "Slovakia", "CountryCode": "SK", "Latitude": 49.142026, "Longitude": 18.472963 }, "geometry": { "type": "Point", "coordinates": [ 18.472963, 49.142026 ] } },
{ "type": "Feature", "properties": { "CityHun": "Vághidas", "CityLoc": "Istebník", "CountryName": "Slovakia", "CountryCode": "SK", "Latitude": 48.757443, "Longitude": 19.247732 }, "geometry": { "type": "Point", "coordinates": [ 19.247732, 48.757443 ] } },
{ "type": "Feature", "properties": { "CityHun": "Vághorka", "CityLoc": "Hôrka nad Váhom", "CountryName": "Slovakia", "CountryCode": "SK", "Latitude": 48.711579, "Longitude": 17.949547 }, "geometry": { "type": "Point", "coordinates": [ 17.949547, 48.711579 ] } },
{ "type": "Feature", "properties": { "CityHun": "Vághosszúfalu", "CityLoc": "Dlhá nad Váhom", "CountryName": "Slovakia", "CountryCode": "SK", "Latitude": 48.181706, "Longitude": 17.861086 }, "geometry": { "type": "Point", "coordinates": [ 17.861086, 48.181706 ] } },
{ "type": "Feature", "properties": { "CityHun": "Vágkelecsény", "CityLoc": "Turèianske K¾aèany", "CountryName": "Slovakia", "CountryCode": "SK", "Latitude": 49.134943, "Longitude": 18.949441 }, "geometry": { "type": "Point", "coordinates": [ 18.949441, 49.134943 ] } },
{ "type": "Feature", "properties": { "CityHun": "Vágkeresztúr", "CityLoc": "Krížovany nad Dudváhom", "CountryName": "Slovakia", "CountryCode": "SK", "Latitude": 48.321872, "Longitude": 17.651971 }, "geometry": { "type": "Point", "coordinates": [ 17.651971, 48.321872 ] } },
{ "type": "Feature", "properties": { "CityHun": "Vágkirályfa", "CityLoc": "Krá¾ová nad Váhom", "CountryName": "Slovakia", "CountryCode": "SK", "Latitude": 48.176044, "Longitude": 17.823555 }, "geometry": { "type": "Point", "coordinates": [ 17.823555, 48.176044 ] } },
{ "type": "Feature", "properties": { "CityHun": "Vágkohány", "CityLoc": "Kochanovce", "CountryName": "Slovakia", "CountryCode": "SK", "Latitude": 49.190403, "Longitude": 21.386597 }, "geometry": { "type": "Point", "coordinates": [ 21.386597, 49.190403 ] } },
{ "type": "Feature", "properties": { "CityHun": "Vágköre", "CityLoc": "Okrut", "CountryName": "Slovakia", "CountryCode": "SK", "Latitude": 49.155448, "Longitude": 18.377551 }, "geometry": { "type": "Point", "coordinates": [ 18.377551, 49.155448 ] } },
{ "type": "Feature", "properties": { "CityHun": "Vágluka", "CityLoc": "Lúka", "CountryName": "Slovakia", "CountryCode": "SK", "Latitude": 48.657252, "Longitude": 17.878984 }, "geometry": { "type": "Point", "coordinates": [ 17.878984, 48.657252 ] } },
{ "type": "Feature", "properties": { "CityHun": "Vágmagyarád", "CityLoc": "Modranka", "CountryName": "Slovakia", "CountryCode": "SK", "Latitude": 48.339145, "Longitude": 17.618527 }, "geometry": { "type": "Point", "coordinates": [ 17.618527, 48.339145 ] } },
{ "type": "Feature", "properties": { "CityHun": "Vágmedence", "CityLoc": "Madunice", "CountryName": "Slovakia", "CountryCode": "SK", "Latitude": 48.482881, "Longitude": 17.783003 }, "geometry": { "type": "Point", "coordinates": [ 17.783003, 48.482881 ] } },
{ "type": "Feature", "properties": { "CityHun": "Vágmogyoród", "CityLoc": "Lieskovec", "CountryName": "Slovakia", "CountryCode": "SK", "Latitude": 48.95, "Longitude": 21.816667 }, "geometry": { "type": "Point", "coordinates": [ 21.816667, 48.95 ] } },
{ "type": "Feature", "properties": { "CityHun": "Vágmosóc", "CityLoc": "Považany", "CountryName": "Slovakia", "CountryCode": "SK", "Latitude": 48.710031, "Longitude": 17.847866 }, "geometry": { "type": "Point", "coordinates": [ 17.847866, 48.710031 ] } },
{ "type": "Feature", "properties": { "CityHun": "Vágnedec", "CityLoc": "Nededza", "CountryName": "Slovakia", "CountryCode": "SK", "Latitude": 49.220817, "Longitude": 18.835699 }, "geometry": { "type": "Point", "coordinates": [ 18.835699, 49.220817 ] } },
{ "type": "Feature", "properties": { "CityHun": "Vágó", "CityLoc": "Ïubákovo", "CountryName": "Slovakia", "CountryCode": "SK", "Latitude": 48.561516, "Longitude": 19.736326 }, "geometry": { "type": "Point", "coordinates": [ 19.736326, 48.561516 ] } },
{ "type": "Feature", "properties": { "CityHun": "Vágod", "CityLoc": "Holzschlag", "CountryName": "Austria", "CountryCode": "AT", "Latitude": 48.849512, "Longitude": 15.00234 }, "geometry": { "type": "Point", "coordinates": [ 15.00234, 48.849512 ] } },
{ "type": "Feature", "properties": { "CityHun": "Vágõr", "CityLoc": "Stráže", "CountryName": "Slovakia", "CountryCode": "SK", "Latitude": 48.685349, "Longitude": 18.435824 }, "geometry": { "type": "Point", "coordinates": [ 18.435824, 48.685349 ] } },
{ "type": "Feature", "properties": { "CityHun": "Vágpart", "CityLoc": "Savèina-Podvažie", "CountryName": "Slovakia", "CountryCode": "SK", "Latitude": 49.020406, "Longitude": 18.239559 }, "geometry": { "type": "Point", "coordinates": [ 18.239559, 49.020406 ] } },
{ "type": "Feature", "properties": { "CityHun": "Vágpatta", "CityLoc": "Pata", "CountryName": "Slovakia", "CountryCode": "SK", "Latitude": 48.275763, "Longitude": 17.825282 }, "geometry": { "type": "Point", "coordinates": [ 17.825282, 48.275763 ] } },
{ "type": "Feature", "properties": { "CityHun": "Vágrákó", "CityLoc": "Rako¾uby", "CountryName": "Slovakia", "CountryCode": "SK", "Latitude": 48.760455, "Longitude": 17.885784 }, "geometry": { "type": "Point", "coordinates": [ 17.885784, 48.760455 ] } },
{ "type": "Feature", "properties": { "CityHun": "Vágratkó", "CityLoc": "Ratkovo", "CountryName": "Slovakia", "CountryCode": "SK", "Latitude": 49.133866, "Longitude": 19.085406 }, "geometry": { "type": "Point", "coordinates": [ 19.085406, 49.133866 ] } },
{ "type": "Feature", "properties": { "CityHun": "Vágrévfalu", "CityLoc": "Mnešice", "CountryName": "Slovakia", "CountryCode": "SK", "Latitude": 48.767896, "Longitude": 17.835435 }, "geometry": { "type": "Point", "coordinates": [ 17.835435, 48.767896 ] } },
{ "type": "Feature", "properties": { "CityHun": "Vágromos", "CityLoc": "Nosice", "CountryName": "Slovakia", "CountryCode": "SK", "Latitude": 49.130422, "Longitude": 18.356715 }, "geometry": { "type": "Point", "coordinates": [ 18.356715, 49.130422 ] } },
{ "type": "Feature", "properties": { "CityHun": "Vágsellye", "CityLoc": "Ša¾a", "CountryName": "Slovakia", "CountryCode": "SK", "Latitude": 48.151379, "Longitude": 17.874859 }, "geometry": { "type": "Point", "coordinates": [ 17.874859, 48.151379 ] } },
{ "type": "Feature", "properties": { "CityHun": "Vágsomfalu", "CityLoc": "Drienové", "CountryName": "Slovakia", "CountryCode": "SK", "Latitude": 48.401398, "Longitude": 20.021052 }, "geometry": { "type": "Point", "coordinates": [ 20.021052, 48.401398 ] } },
{ "type": "Feature", "properties": { "CityHun": "Vágszabolcs", "CityLoc": "Záblatie", "CountryName": "Slovakia", "CountryCode": "SK", "Latitude": 48.895197, "Longitude": 17.994995 }, "geometry": { "type": "Point", "coordinates": [ 17.994995, 48.895197 ] } },
{ "type": "Feature", "properties": { "CityHun": "Vágszakály", "CityLoc": "Sokolovce", "CountryName": "Slovakia", "CountryCode": "SK", "Latitude": 48.536636, "Longitude": 17.842892 }, "geometry": { "type": "Point", "coordinates": [ 17.842892, 48.536636 ] } },
{ "type": "Feature", "properties": { "CityHun": "Vágszállás", "CityLoc": "Sedlièná", "CountryName": "Slovakia", "CountryCode": "SK", "Latitude": 48.825303, "Longitude": 18.020719 }, "geometry": { "type": "Point", "coordinates": [ 18.020719, 48.825303 ] } },
{ "type": "Feature", "properties": { "CityHun": "Vágszentkereszt", "CityLoc": "Kríž nad Váhom", "CountryName": "Slovakia", "CountryCode": "SK", "Latitude": 48.702908, "Longitude": 17.846424 }, "geometry": { "type": "Point", "coordinates": [ 17.846424, 48.702908 ] } },
{ "type": "Feature", "properties": { "CityHun": "Vágszentpéter", "CityLoc": "Svätý Peter", "CountryName": "Slovakia", "CountryCode": "SK", "Latitude": 47.846468, "Longitude": 18.262893 }, "geometry": { "type": "Point", "coordinates": [ 18.262893, 47.846468 ] } },
{ "type": "Feature", "properties": { "CityHun": "Vágsziklás", "CityLoc": "Skalka nad Váhom", "CountryName": "Slovakia", "CountryCode": "SK", "Latitude": 48.936024, "Longitude": 18.072847 }, "geometry": { "type": "Point", "coordinates": [ 18.072847, 48.936024 ] } },
{ "type": "Feature", "properties": { "CityHun": "Vágtapolca", "CityLoc": "Teplièka nad Váhom", "CountryName": "Slovakia", "CountryCode": "SK", "Latitude": 49.228025, "Longitude": 18.797215 }, "geometry": { "type": "Point", "coordinates": [ 18.797215, 49.228025 ] } },
{ "type": "Feature", "properties": { "CityHun": "Vágterbete", "CityLoc": "Trebatice", "CountryName": "Slovakia", "CountryCode": "SK", "Latitude": 48.596347, "Longitude": 17.749701 }, "geometry": { "type": "Point", "coordinates": [ 17.749701, 48.596347 ] } },
{ "type": "Feature", "properties": { "CityHun": "Vágújfalu", "CityLoc": "Nová Ves nad Váhom", "CountryName": "Slovakia", "CountryCode": "SK", "Latitude": 48.728664, "Longitude": 17.901439 }, "geometry": { "type": "Point", "coordinates": [ 17.901439, 48.728664 ] } },
{ "type": "Feature", "properties": { "CityHun": "Vágújhely", "CityLoc": "Nové Mesto nad Váhom", "CountryName": "Slovakia", "CountryCode": "SK", "Latitude": 48.763325, "Longitude": 17.830386 }, "geometry": { "type": "Point", "coordinates": [ 17.830386, 48.763325 ] } },
{ "type": "Feature", "properties": { "CityHun": "Vágutas", "CityLoc": "Újazd", "CountryName": "Slovakia", "CountryCode": "SK", "Latitude": 48.940081, "Longitude": 18.07916 }, "geometry": { "type": "Point", "coordinates": [ 18.07916, 48.940081 ] } },
{ "type": "Feature", "properties": { "CityHun": "Vágváralja", "CityLoc": "Považské Podhradie", "CountryName": "Slovakia", "CountryCode": "SK", "Latitude": 49.141485, "Longitude": 18.459787 }, "geometry": { "type": "Point", "coordinates": [ 18.459787, 49.141485 ] } },
{ "type": "Feature", "properties": { "CityHun": "Vágvecse", "CityLoc": "Veèa", "CountryName": "Slovakia", "CountryCode": "SK", "Latitude": 48.166591, "Longitude": 17.887422 }, "geometry": { "type": "Point", "coordinates": [ 17.887422, 48.166591 ] } },