CityHun;CityLoc;CountryName;CountryCode;Latitude;Longitude;;;
Aba;Aba;Hungary;HU;47,02919;18,521661;;;
Abádszalók;Abádszalók;Hungary;HU;47.476014;20.599775;;;
Abafája;Apalina;Romania;RO;46.753996;24.690772;;;
Abafalva;Abovce;Slovakia;SK;48.31133;20.338123;;;
Abaliget;Abaliget;Hungary;HU;46.140978;18.116744;;;
Abara;Oborín;Slovakia;SK;48.542158;21.886465;;;
Abasár;Abasár;Hungary;HU;47.79471;20.00018;;;
Abásfalva;Aldea;Romania;RO;46.252486;25.434959;;;
Abaszállás;Lehota;Slovakia;SK;48.315071;17.992754;;;
Abaszéplak;Krásna nad Hornádom;Slovakia;SK;48.672606;21.318817;;;
Abaújalpár;Abaújalpár;Hungary;HU;48.306561;21.232627;;;
Abaújharaszti;Chrastné;Slovakia;SK;48.793304;21.353154;;;
Abaújkér;Abaújkér;Hungary;HU;48.307944;21.199844;;;
Abaújlak;Abaújlak;Hungary;HU;48.405055;20.955053;;;
Abaújnádasd;Trstené pri Hornáde;Slovakia;SK;48.573796;21.335137;;;
Abaújrákos;Rákoš;Slovakia;SK;48.599274;20.148815;;;
Abaújszakaly;Soko¾any;Slovakia;SK;48.609354;21.230262;;;
Abaújszántó;Abaújszántó;Hungary;HU;48.278706;21.1855;;;
Abaújszina;Seòa;Slovakia;SK;48.56129;21.257072;;;
Abaújszolnok;Abaújszolnok;Hungary;HU;48.372491;20.973949;;;
Abaújvár;Abaújvár;Hungary;HU;48.526044;21.314622;;;
Abda;Abda;Hungary;HU;47.697682;17.540983;;;
Abdalóc;Edlitz im Burgenland;Austria;AT;47.135211;16.434898;;;
Ábelfalva;Abelová;Slovakia;SK;48.410711;19.432452;;;
Abod;Abod;Hungary;HU;48.392654;20.791038;;;
Abony;Abony;Hungary;HU;47.18874;20.004782;;;
Abos;Obišovce;Slovakia;SK;48.863008;21.235978;;;
Abosfalva;Abuº;Romania;RO;46.356883;24.381037;;;
Ábrahám;Abrahám;Slovakia;SK;48.247983;17.619419;;;
Ábrahámfalva;Abrahamovce;Slovakia;SK;49.164624;21.341789;;;
Ábrahámhegy;Ábrahámhegy;Hungary;HU;46.814783;17.5715;;;
Ábrahámpikfalva;Abrahamovce;Slovakia;SK;49.164624;21.341789;;;
Ábránfalva;Obrãneºti;Romania;RO;46.227802;25.293931;;;
Ábránka;Abranka;Ukraine;UA;48.733338;23.070244;;;
Ábrány;Abranovce;Slovakia;SK;48.938097;21.357306;;;
Abroncsos;Obruèné;Slovakia;SK;49.304556;20.982761;;;
Abrudbánya;Abrud;Romania;RO;46.274675;23.065029;;;
Abrudfalva;Abrud-Sat;Romania;RO;46.281657;23.06098;;;
Abrudkerpenyes;Cãrpiniº;Romania;RO;45.832718;23.658894;;;
Abucsa;Abucea;Romania;RO;45.910479;22.531741;;;
Ács;Ács;Hungary;HU;47.710071;18.014785;;;
Acsa;Acsa;Hungary;HU;47.792187;19.38724;;;
Acsád;Acsád;Hungary;HU;47.32298;16.734185;;;
Acsalag;Acsalag;Hungary;HU;47.675277;17.198888;;;
Ácsfalva;Aciuşa;Romania;RO;46.289168;22.451404;;;
Ácsteszér;Ácsteszér;Hungary;HU;47.406014;18.005688;;;
Ácsva;Avram Iancu;Romania;RO;46.367149;22.810948;;;
Ada;Ada;Serbia;RS;45.810857;20.128141;;;
Adács;Adács;Hungary;HU;47.691546;19.975196;;;
Adalin;Adalin;Romania;RO;47.013028;23.43763;;;
Ádámfalva;Adamovské Kochanovce;Slovakia;SK;48.863672;17.917096;;;
Ádámfölde;Mošurov;Slovakia;SK;49.119989;21.249177;;;
Ádámos;Adãmuº;Romania;RO;46.303925;24.236952;;;
Ádánd;Ádánd;Hungary;HU;46.857011;18.154138;;;
Adásztevel;Adásztevel;Hungary;HU;47.304101;17.540071;;;
Adjisten;Mièunovo;Serbia;RS;45.832646;19.663884;;;
Adony;Adony;Hungary;HU;47.120803;18.862971;;;
Adorján;Adrian;Romania;RO;47.903691;23.127155;;;
Adorján;Adorjan;Serbia;RS;46.005444;20.038043;;;
Adorjánfalva;Odranci;Slovenia;Sl;46.586731;16.275777;;;
Adorjánháza;Adorjánháza;Hungary;HU;47.243104;17.239537;;;
Adorjás;Adorjás;Hungary;HU;45.849891;18.064057;;;
Ág;Ág;Hungary;HU;46.296;18.204151;;;
Aga;Brestovãş;Romania;RO;45.873418;21.682006;;;
Agadics;Agadici;Romania;RO;45.108916;21.697817;;;
Ágasegyháza;Ágasegyháza;Hungary;HU;46.840237;19.446839;;;
Ágcsernyõ;Èierná;Slovakia;SK;48.839931;19.721642;;;
Ágfalva;Ágfalva;Hungary;HU;47.690532;16.513787;;;
Aggtelek;Aggtelek;Hungary;HU;48.467513;20.50544;;;
Ágó;Agov;Slovakia;SK;25.79507;-80.128334;;;
Ágónyír;Nırovce;Slovakia;SK;48.02393;18.580129;;;
Ágostháza;Bystrany;Slovakia;SK;48.949084;20.759414;;;
Ágostonfalva;Augustin;Romania;RO;46.044369;25.540566;;;
Ágostonlak;Závadka nad Hronom;Slovakia;SK;48.845021;19.919899;;;
Ágotakövesd;Coveº;Romania;RO;45.980546;24.572595;;;
Ágya;Adea;Romania;RO;46.555107;21.584328;;;
Agyagfalva;Lutişa;Romania;RO;46.246477;25.186707;;;
Agyagospatak;Hlinné;Slovakia;SK;48.952044;21.557788;;;
Agyagosszergény;Agyagosszergény;Hungary;HU;47.609256;16.940945;;;
Agyidóc;Adidovce;Slovakia;SK;49.022132;22.063402;;;
Aha;Hornı Ohaj;Slovakia;SK;48.257944;18.320398;;;
Áj;Háj;Slovakia;SK;48.628388;20.854511;;;
Ajak;Ajak;Hungary;HU;48.17785;22.05223;;;
Ájfalucska;Haèava;Slovakia;SK;48.667324;20.83667;;;
Ajka;Ajka;Hungary;HU;47.105658;17.558728;;;
Ajkai ;Ajkai ;Hungary;HU;47.080866;17.594024;;;
Ajnácskõ;Hajnáèka;Slovakia;SK;48.226885;19.96274;;;
Ajnád;Nãdejdea;Romania;RO;46.496396;25.839513;;;
Ajton;Aiton;Romania;RO;46.684227;23.743231;;;
Aka;Aka;Hungary;HU;47.404817;18.06991;;;
Akasztó;Akasztó;Hungary;HU;46.690982;19.206354;;;
Akli;Klinove;Ukraine;UA;48.017164;23.038003;;;
Aklihegy;Klinovecka Hora;Ukraine;UA;48.013197;23.059845;;;
Aklitanya;Nove Klinove;Ukraine;UA;48.017164;23.038003;;;
Aklos;Uklin;Ukraine;UA;48.668145;22.986989;;;
Akmár;Acmariu;Romania;RO;45.96072;23.360692;;;
Aknasugatag;Ocna ªugatag;Romania;RO;47.781321;23.939477;;;
Aknaszlatina;Szolotvina;Ukraine;UA;47.955709;23.877579;;;
Ákos;Acâº;Romania;RO;47.539057;22.784335;;;
Ákosfalva;Acãşari;Romania;RO;46.479546;24.633858;;;
Alacska;Alacska;Hungary;HU;48.215539;20.651627;;;
Alamor;Alãmor;Romania;RO;45.928863;24.002412;;;
Alap;Alap;Hungary;HU;46.804475;18.68543;;;
Alattyán;Alattyán;Hungary;HU;47.425681;20.047587;;;
Albár;Dolnı Bar;Slovakia;SK;47.966516;17.685862;;;
Albertfalu;Grabovac;Croatia;HR;45.142383;15.651263;;;
Albertirsa;Albertirsa;Hungary;HU;47.24573;19.612784;;;
Albis;Albiº;Romania;RO;45.93583;26.005666;;;
Alcina;Alşina;Romania;RO;45.930199;24.462029;;;
Alcsil;Cil;Romania;RO;46.283092;22.263366;;;
Alcsútdoboz;Alcsútdoboz;Hungary;HU;47.425509;18.603061;;;
Áldásos;Hãlãliº;Romania;RO;46.005334;22.205922;;;
Aldebrõ;Aldebrõ;Hungary;HU;47.789269;20.230494;;;
Aldoboly;Dobolii de Jos;Romania;RO;45.780012;25.755991;;;
Áldófalva;Aldeºti;Romania;RO;46.391859;22.0402;;;
Aldorf;Unirea;Romania;RO;44.260521;27.601282;;;
Alfüged;Ciugudu de Jos;Romania;RO;46.418717;23.744741;;;
Algyógy;Geoagiu;Romania;RO;45.920737;23.199754;;;
Algyõ;Algyõ;Hungary;HU;46.335276;20.208406;;;
Alhó;Markt Allhau;Austria;AT;47.292036;16.081625;;;
Alibánfa;Alibánfa;Hungary;HU;46.884646;16.920986;;;
Alibunár;Alibunar;Serbia;RS;45.079841;20.966333;;;
Alistál;Dolnı Štál;Slovakia;SK;47.931305;17.732877;;;
Alkenyér;ªibot;Romania;RO;45.941061;23.336176;;;
Alkér;Cheriu;Romania;RO;47.012531;22.021976;;;
Almád;Jablanka;Serbia;RS;45.075489;21.391558;;;
Almafa;Mãru;Romania;RO;44.899283;23.733367;;;
Almágy;Gemerskı Jablonec;Slovakia;SK;48.193688;19.976101;;;
Almakerék;Mãlâncrav;Romania;RO;46.109213;24.650902;;;
Almamellék;Almamellék;Hungary;HU;46.157539;17.874136;;;
Almamezõ;Hidiºelu de Jos;Romania;RO;46.946915;22.023757;;;
Almás;Meriºor;Romania;RO;46.699214;24.549777;;;
Almás;Aljmaš;Croatia;HR;45.527915;18.949105;;;
Almásbalázsháza;Bãlan;Romania;RO;46.652595;25.811344;;;
Almáscsáka;Ceaca;Romania;RO;47.196813;23.559523;;;
Almásdál;Dolu;Romania;RO;46.987205;23.326021;;;
Almásegres;Agriºu Mare;Romania;RO;46.271814;21.755622;;;
Almasel;Almãºel;Romania;RO;46.093402;22.433917;;;
Almásfalu;Jablonové;Slovakia;SK;48.34944;17.092848;;;
Almásfegyvernek;Fegernic;Romania;RO;47.203674;22.128581;;;
Almásfüzitõ;Almásfüzitõ;Hungary;HU;47.726431;18.262513;;;
Almásgalgó;Gâlgãu Almaºului;Romania;RO;47.197644;23.327141;;;
Almásháza;Almásháza;Hungary;HU;46.842306;17.047299;;;
Almáskamarás;Almáskamarás;Hungary;HU;46.460838;21.092891;;;
Almáskeresztúr;Almáskeresztúr;Hungary;HU;46.11961;17.894533;;;
Almásköblös;Cubleºu;Romania;RO;46.931122;23.318742;;;
Almásmálom;Malin;Romania;RO;47.119475;24.131833;;;
Almásmezõ;Bicaz-Chei;Romania;RO;46.827775;25.875424;;;
Almásmezõ;Poiana Mãrului;Romania;RO;45.605782;25.307007;;;
Almásnyíres;Mesteacãnu;Romania;RO;46.965554;23.024041;;;
Almáspatak;Sztrimba;Ukraine;UA;48.044369;23.918671;;;
Almásrákos;Racâº;Romania;RO;47.104707;23.296043;;;
Almásróna;Ravensca;Romania;RO;44.774108;21.915627;;;
Almástamási;Tãmaºa;Romania;RO;46.94839;23.18734;;;
Almástelep;Jablonyivka;Ukraine;UA;48.011761;23.509693;;;
Almaszeg;Voivozi;Romania;RO;47.220713;22.393702;;;
Almaszeghuta;Huta Voivozi;Romania;RO;47.155978;22.480112;;;
Almásszelistye;Almaº-Sãliºte;Romania;RO;46.063221;22.520903;;;
Almásszentmária;Sântã Maria;Romania;RO;47.041304;23.203002;;;
Almásszentmihály;Sânmihaiu Almaºului;Romania;RO;47.034995;23.268695;;;
Alménes;Miniºel;Romania;RO;46.257581;21.995366;;;
Álmosd;Álmosd;Hungary;HU;47.415403;21.983813;;;
Alõr;Uriºor;Romania;RO;47.168958;23.877774;;;
Alparét;Bobâlna;Romania;RO;45.8782;23.12974;;;
Alpestes;Peºtiºu Mare;Romania;RO;45.803034;22.927029;;;
Alsó- és Felsõrászok;Ráztoky;Slovakia;SK;49.109722;18.854722;;;
Alsó-Tavankút;Donji Tavankut;Serbia;RS;46.047521;19.493728;;;
Alsóaklos;Ocoliº;Romania;RO;46.478735;23.46608;;;
Alsóalmád;Niná Jablonka;Slovakia;SK;49.124545;22.087104;;;
Alsóalmás;Dolnı Almás;Slovakia;SK;48.326093;18.829793;;;
Alsóapsa;Gyibrova;Ukraine;UA;48.004413;23.834931;;;
Alsóaradác;Aradac;Serbia;RS;45.380479;20.301288;;;
Alsóárpás;Arpaºu de Jos;Romania;RO;45.779473;24.622127;;;
Alsóatrak;Dolné Otrokovce;Slovakia;SK;48.466368;17.911872;;;
Alsóbágyon;Dolnı Badín;Slovakia;SK;48.262846;19.055989;;;
Alsóbajom;Boian;Romania;RO;46.202033;24.226595;;;
Alsóbaka;Devièany;Slovakia;SK;48.322212;18.704707;;;
Alsóbalázsfalva;Blãjenii de Jos;Romania;RO;47.170077;24.352419;;;
Alsóbalog;Nínı Blh;Slovakia;SK;48.428876;20.111138;;;
Alsóbán;Bãniºor;Romania;RO;47.105109;22.839093;;;
Alsóbarakony;Berechiu;Romania;RO;46.636768;21.843641;;;
Alsóbarbatyeniszkrony;Iscroni;Romania;RO;45.377033;23.335948;;;
Alsóbaskóc;Baškovce;Slovakia;SK;49.033744;21.838349;;;
Alsóbaucár;Bãuşar;Romania;RO;45.516667;22.566667;;;
Alsóbeled;Unterbildein;Austria;AT;47.128663;16.467582;;;
Alsóbencsek;Bencecu de Jos;Romania;RO;45.904697;21.429924;;;
Alsóberecki;Alsóberecki;Hungary;HU;48.344993;21.687367;;;
Alsóberek;Brestov;Slovakia;SK;48.872898;21.346357;;;
Alsóberekszó;Bârsãu de Jos;Romania;RO;47.595183;23.263756;;;
Alsóbeszterce;Dolnja Bistrica;Slovenia;Sl;46.540811;16.289906;;;
Alsóbisztra;Nyizsnyi Bisztrij;Ukraine;UA;48.355005;23.535292;;;
Alsóbodok;Dolné Obdokovce;Slovakia;SK;48.31099;18.208906;;;
Alsóbogát;Alsóbogát;Hungary;HU;46.510569;17.749128;;;
Alsóbogáta;Bogata de Jos;Romania;RO;47.204232;23.706202;;;
Alsóboj;Boiu de Jos;Romania;RO;46.004398;22.59803;;;
Alsóboldád;Bolda;Romania;RO;47.532511;22.916002;;;
Alsóboldogfalva;Bodogaia;Romania;RO;46.274916;24.994726;;;
Alsóborgó;Josenii Bârgãului;Romania;RO;47.207897;24.675067;;;
Alsóboró;Zbora;Slovakia;SK;49.183246;18.28231;;;
Alsóbotfalu;Dolné Bzince;Slovakia;SK;48.808098;17.762843;;;
Alsóbölkény;Beica de Jos;Romania;RO;46.731758;24.796796;;;
Alsóbudak;Buduº;Romania;RO;47.077594;24.539159;;;
Alsóbún;Şopa;Romania;RO;46.254447;24.881619;;;
Alsócsáj;Ninı Èaj;Slovakia;SK;48.666667;21-Apr;;;
Alsócsalogány;Dolnji Slaveèi;Slovenia;Sl;46.797603;16.069369;;;
Alsócsebény;Niné Èabine;Slovakia;SK;49.187719;21.897252;;;
Alsócsernáton;Cernat;Romania;RO;45.950345;26.03532;;;
Alsócsernye;Èernina;Slovakia;SK;49.052344;21.823596;;;
Alsócsertés;Certeju de Jos;Romania;RO;46.014231;22.654374;;;
Alsócsikéria;Ljutovo;Serbia;RS;46.066661;19.528626;;;
Alsócsitár;Dolné Štitáre;Slovakia;SK;48.353569;18.156607;;;
Alsócsobánka;Ciubanca;Romania;RO;47.163145;23.573893;;;
Alsócsóra;Sãliºtea;Romania;RO;45.903781;23.403236;;;
Alsócsöpöny;Dolnı Èepeò;Slovakia;SK;48.296743;17.734063;;;
Alsódacsólam;Dolnı Daèolôm;Slovakia;SK;48.326524;19.249051;;;
Alsóderna;Derniºoara;Romania;RO;47.220539;22.253494;;;
Alsódetrehem;Tritenii de Jos;Romania;RO;46.58936;23.998244;;;
Alsódiós;Dolné Orešany;Slovakia;SK;48.44471;17.398579;;;
Alsódobsza;Alsódobsza;Hungary;HU;48.180481;21.0003;;;
Alsódombó;Dolné Dubové;Slovakia;SK;48.494149;17.596581;;;
Alsódomboru;Donja Dubrava;Croatia;HR;46.31587;16.809056;;;
Alsódombró;Dumbrãvişa;Romania;RO;45.797808;21.23234;;;
Alsódomonya;Domaninci;Ukraine;UA;48.6208;22.287883;;;
Alsódubovány;Dubovany;Slovakia;SK;48.530683;17.734454;;;
Alsóegregy;Românaºi;Romania;RO;47.111719;23.183402;;;
Alsóegres;Agriºu de Jos;Romania;RO;47.156493;24.237305;;;
Alsóelefánt;Dolné Lefántovce;Slovakia;SK;48.424752;18.122022;;;
Alsóelemér;Nemaèki Elemir;Serbia;RS;45.450846;20.284632;;;
Alsóerdõfalva;Nová Lesná;Slovakia;SK;49.127333;20.267628;;;
Alsóesztergály;Dolné Strháre;Slovakia;SK;48.247658;19.391508;;;
Alsófalu;Polina;Slovakia;SK;48.493542;20.21237;;;
Alsófancsal;Brãdeşelu;Romania;RO;46.755389;25.05171;;;
Alsófarkadin;Unirea;Romania;RO;44.260521;27.601282;;;
Alsófegyvernek;Dolnı Feïvernek;Slovakia;SK;48.077172;18.686443;;;
Alsófehérkút;Príbelce;Slovakia;SK;48.195658;19.257227;;;
Alsófeketevölgy;Valea de Jos;Romania;RO;46.567226;22.492749;;;
Alsófenyves;Niná Jed¾ová;Slovakia;SK;49.339253;21.563142;;;
Alsóferencfalva;Ferketinec;Croatia;HR;46.475168;16.510212;;;
Alsófernezely;Ferneziu;Romania;RO;47.690904;23.626714;;;
Alsófricske;Frièkovce;Slovakia;SK;49.184587;21.240937;;;
Alsófüld;Fildu de Jos;Romania;RO;46.91902;23.057995;;;
Alsófüle;Filea de Jos;Romania;RO;46.620482;23.508347;;;
Alsófüves;Vãrzarii de Jos;Romania;RO;46.489592;22.498737;;;
Alsógagy;Alsógagy;Hungary;HU;48.404723;21.023678;;;
Alsógáld;Galda de Jos;Romania;RO;46.181924;23.615876;;;
Alsógellér;Holiare;Slovakia;SK;47.831784;17.810525;;;
Olenyova;Oleneve;Ukraine;UA;3;31.283333;;;
Alsógezés;Ghijasa de Jos;Romania;RO;45.91893;24.388579;;;
Alsógörbed;Crivina;Romania;RO;44.506756;22.570748;;;
Alsógyékényes;Jichiºu de Jos;Romania;RO;47.128902;23.788374;;;
Alsógyertyán;Ninı Hrabovec;Slovakia;SK;48.854057;21.750371;;;
Alsógyõröd;Dolnı Ïúr;Slovakia;SK;48.204404;18.436261;;;
Alsóhagymás;Hãºmaº;Romania;RO;47.191549;23.607218;;;
Alsóhalas;Niná Rybnica;Slovakia;SK;48.754322;22.152343;;;
Alsóhámor;Hodruša-Hámre;Slovakia;SK;48.452329;18.802504;;;
Alsóhatár;Dolnı Chotár;Slovakia;SK;47.994689;17.860851;;;
Alsóhatárszeg;Roztoka;Ukraine;UA;48.60058;23.707248;;;
Alsóhelbény;Dolné Chlebany;Slovakia;SK;48.598212;18.222279;;;
Alsóhermánd;Dolnı Harmanec;Slovakia;SK;48.83664;19.039434;;;
Alsóhidas;Dolnı Moštenec;Slovakia;SK;49.087232;18.442735;;;
Alsóhideghegy;Donji Zebanec;Croatia;HR;46.473766;16.403615;;;
Alsóhidegpatak;Nyizsnyij Sztudenij;Ukraine;UA;48.695207;23.360756;;;
Alsóhímes;Niná Pisaná;Slovakia;SK;49.384646;21.601129;;;
Alsóhomoród;Homorodu de Jos;Romania;RO;47.665496;23.08409;;;
Palina;Velika Palina;Slovenia;Sl;16862;14.666667;;;
Alsóhunkóc;Choòkovec;Slovakia;SK;48.779295;22.243351;;;
Alsóhuta;Iegheriºte;Romania;RO;47.657805;23.26272;;;
Alsóhutka;Niná Hutka;Slovakia;SK;48.658937;21.359106;;;
Alsóidecs;Ideciu de Jos;Romania;RO;46.816901;24.761145;;;
Alsóilosva;Iliºua;Romania;RO;47.218703;24.091643;;;
Alsóittebe;Novi Itebej;Serbia;RS;45.558033;20.701691;;;
Alsójánosfa;Ivanjševci;Slovenia;Sl;46.762784;16.295059;;;
Alsójányok;Dolné Janíky;Slovakia;SK;48.134592;17.404687;;;
Alsójára;Iara;Romania;RO;46.555866;23.51615;;;
Alsójattó;Jatov;Slovakia;SK;48.128462;18.028264;;;
Alsókabol;Donji Kovilj;Serbia;RS;45.16702;20.083813;;;
Alsókajanel;Cãinelu de Jos;Romania;RO;45.950163;22.831588;;;
Alsókálinfalva;Kalini;Ukraine;UA;48.1414;23.87364;;;
Alsókálnok;Dolnı Kalník;Slovakia;SK;49.040827;18.963564;;;
Alsókalocsa;Kolocsava;Ukraine;UA;48.418023;23.737112;;;
Alsókálosa;Kaloša;Slovakia;SK;48.414297;20.234695;;;
Alsókánya;Jastrabie pri Michalovce;Slovakia;SK;48.719452;22.033273;;;
Alsókápolna;Cãpâlna de Jos;Romania;RO;46.239997;24.113037;;;
Alsókarácsonfalva;Crãciunelu de Jos;Romania;RO;46.171394;23.835488;;;
Alsókaraszló;Zarecsje;Ukraine;UA;48.283492;22.989242;;;
Alsókaznacs;Cosniciu de Jos;Romania;RO;47.206165;22.612811;;;
Alsókemence;Niná Kamenica;Slovakia;SK;48.760547;21.477905;;;
Alsókemenec;Kamenec pod Vtáènikom;Slovakia;SK;48.67223;18.55059;;;
Alsókerepec;Nyizsnyij Koropec;Ukraine;UA;48.363722;22.66194;;;
Alsókismartonhegy;Unterberg Eisenstadt;Austria;AT;47.847105;16.513955;;;
Alsókocskóc;Dolné Koèkovce;Slovakia;SK;49.093496;18.324426;;;
Alsókocsoba;Cociuba Mare;Romania;RO;46.741941;21.997945;;;
Alsókomána;Comana de Jos;Romania;RO;45.914442;25.22913;;;
Alsókomárnok;Ninı Komárnik;Slovakia;SK;49.381939;21.726126;;;
Alsókomaróc;Komárany;Slovakia;SK;48.92041;21.642176;;;
Alsókorompa;Dolná Krupá;Slovakia;SK;48.469908;17.565541;;;
Alsókosály;Cãºeiu;Romania;RO;47.196903;23.853771;;;
Alsóköcsény;Kuèín;Slovakia;SK;49.208803;21.454699;;;
Alsóköhér;Chiheru de Jos;Romania;RO;46.687002;24.881636;;;
Alsóköröskény;Dolné Krškany;Slovakia;SK;48.260615;18.097679;;;
Alsókörtvélyes;Ninı Hrušov;Slovakia;SK;48.80221;21.779876;;;
Alsóköves;Nicolae Bãlcescu;Romania;RO;46.033412;22.093358;;;
Alsókubin;Dolnı Kubín;Slovakia;SK;49.247887;19.290091;;;
Alsóladács;Vladièa;Slovakia;SK;49.321811;21.786839;;;
Alsólakos;Dolnji Lakoš;Slovenia;Sl;46.553154;16.434579;;;
Alsólánc;Ninı Lánec;Slovakia;SK;48.536278;21.110413;;;
Alsólápos;£apsze NiŸnie;Poland;PL;49.396878;20.244302;;;
Alsólapugy;Lãpugiu de Jos;Romania;RO;45.885775;22.480427;;;
Alsólászló;Unterloisdorf;Austria;AT;47.436883;16.534609;;;
Alsólászlófalva;Niné Ladièkovce;Slovakia;SK;49.022197;21.901795;;;
Alsólegénd;Dolné Mladonice;Slovakia;SK;48.35081;19.135868;;;
Alsólehnic;Èervenı Kláštor;Slovakia;SK;49.394231;20.421788;;;
Alsólehota;Dolná Lehota;Slovakia;SK;48.885356;19.523035;;;
Alsólendva;Lendava;Slovenia;Sl;46.56221;16.453688;;;
Alsóleszéte;Korytné;Slovakia;SK;49.009705;20.837639;;;
Alsólipnica;Lipnica Wielka;Poland;PL;49.710095;20.863033;;;
Alsólócz;Dolné Lovèice;Slovakia;SK;48.366573;17.67684;;;
Alsólopassó;Dolnı Lopašov;Slovakia;SK;48.589121;17.633155;;;
Alsólövõ;Unterschützen;Austria;AT;47.322095;16.202636;;;
Alsólugos;Lugaºu de Jos;Romania;RO;47.063903;22.341625;;;
Alsólunkoj;Luncoiu de Jos;Romania;RO;46.088472;22.78246;;;
Alsólupkó;Liubcova;Romania;RO;44.657959;21.891446;;;
Alsómarác;Moravci;Slovenia;Sl;46.520464;16.025463;;;
Alsómattyasóc;Liptovské Matiašovce;Slovakia;SK;49.160635;19.563666;;;
Alsómedves;Grossmürbisch;Austria;AT;47.016198;16.361314;;;
Alsómélyesd;Dolné Hlboké;Slovakia;SK;49.211111;18.586787;;;
Alsómérk;Niné Mirkovce;Slovakia;SK;48.35659;21.146929;;;
Alsómerse;Ninı Mirošov;Slovakia;SK;49.359773;21.473154;;;
Alsómezõs;Câmpanii de Jos;Romania;RO;46.503642;22.537599;;;
Alsómicsinye;Dolná Mièiná;Slovakia;SK;48.671447;19.213307;;;
Alsómihályfalva;Donji Mihaljevec;Croatia;HR;46.336722;16.716205;;;
Alsómihályi;Micha¾any;Slovakia;SK;48.510392;21.615895;;;
Alsómiholjác;Donji Miholjac;Croatia;HR;45.759975;18.164506;;;
Alsómislye;Niná Myš¾a;Slovakia;SK;48.629766;21.35771;;;
Alsómocsolád;Alsómocsolád;Hungary;HU;46.313076;18.245006;;;
Alsómoécs;Moieciu de Jos;Romania;RO;45.492072;25.326511;;;
Alsómogyoród;Dolnı Lieskov;Slovakia;SK;49.031024;18.437432;;;
Alsómotesic;Dolné Motešice;Slovakia;SK;48.816602;18.177985;;;
Alsónádasd;Nãdãºtia de Jos;Romania;RO;45.72073;22.959152;;;
Alsónána;Alsónána;Hungary;HU;46.248855;18.659988;;;
Alsónémedi;Alsónémedi;Hungary;HU;47.314671;19.165704;;;
Alsónemesapáti;Alsónemesapáti;Hungary;HU;46.853909;16.935209;;;
Alsónémeti;Niné Nemecké;Slovakia;SK;48.652633;22.23898;;;
Nagypalina;Velika Palina;Slovenia;Sl;40.789975;14.666667;;;
Alsóneszte;Dolné Naštice;Slovakia;SK;48.692966;18.249854;;;
Alsónyárasd;Topo¾níky;Slovakia;SK;47.966124;17.783214;;;
Alsónyárló;Chichiºa;Romania;RO;47.132631;23.19187;;;
Alsónyék;Alsónyék;Hungary;HU;46.203465;18.734372;;;
Alsónyíresd;Dolná Breznica;Slovakia;SK;49.081141;18.26099;;;
Alsónyiresfalva;Lunca Cernii de Jos;Romania;RO;45.633333;22.616667;;;
Alsónyírjes;Slovenská Kajòa;Slovakia;SK;48.966667;21-Jul;;;
Alsóodor;Ninı Orlík;Slovakia;SK;49.334616;21.525712;;;
Alsóolcsvár;Ninı Olèvar;Slovakia;SK;48.724434;21.352235;;;
Alsóolsva;Niná O¾sava;Slovakia;SK;49.149227;21.635014;;;
Alsóorbó;Gârbova de Jos;Romania;RO;46.259771;23.664307;;;
Alsóoroszfalu;Rusu de Jos;Romania;RO;47.144338;24.170477;;;
Alsóoroszi;Urisiu de Jos;Romania;RO;46.711321;24.893975;;;
Alsóosztorány;Stránske;Slovakia;SK;49.110462;18.721813;;;
Alsóozor;Dolné Ozorovce;Slovakia;SK;48.72659;18.245038;;;
Alsóõr;Unterwart;Austria;AT;47.259608;16.233106;;;
Alsóörs;Alsóörs;Hungary;HU;46.988266;17.977072;;;
Alsópagony;Niná Po¾anka;Slovakia;SK;49.404392;21.40212;;;
Alsópáhok;Alsópáhok;Hungary;HU;46.761316;17.173898;;;
Alsópálfa;Palinovec;Croatia;HR;46.3949;16.597876;;;
Alsópalojta;Dolné Plachtince;Slovakia;SK;48.201967;19.310156;;;
Alsópásztély;Behengyacka Pasztilj;Ukraine;UA;48.862425;22.506584;;;
Alsópatak;Valea Mare de Codru;Romania;RO;46.807775;22.078759;;;
Alsópatakvölgy;Nyizsnyij Dubovec;Ukraine;UA;48.159641;23.908464;;;
Alsópél;Dolnı Pial;Slovakia;SK;48.132583;18.459313;;;
Alsópetény;Alsópetény;Hungary;HU;47.874758;19.244893;;;
Alsópéterfa;Unterpetersdorf;Austria;AT;47.591025;16.581521;;;
Alsópián;Pianu de Jos;Romania;RO;45.934623;23.488933;;;
Alsópodsága;Poºaga de Jos;Romania;RO;46.430889;23.438911;;;
Alsópojény;Poienii de Jos;Romania;RO;46.608408;22.500643;;;
Alsópokorágy;Niná Pokoradz;Slovakia;SK;48.40817;20.027856;;;
Alsóporumbák;Porumbacu de Jos;Romania;RO;45.756132;24.455071;;;
Alsópozsgás;Pojejena;Romania;RO;44.773316;21.577203;;;
Alsópulya;Unterpullendorf;Austria;AT;47.47506;16.540946;;;
Alsópusztafa;Donji Pustakovec;Croatia;HR;46.376248;16.595098;;;
Alsórados;Radošovce;Slovakia;SK;48.495888;17.637566;;;
Alsórajk;Alsórajk;Hungary;HU;46.653715;16.99684;;;
Alsórakonca;Rykynèice;Slovakia;SK;48.204397;18.970147;;;
Alsórákos;Racoº;Romania;RO;46.024455;25.409374;;;
Alsórámóc;Unterrabnitz;Austria;AT;47.45463;16.376395;;;
Alsórécsény;Dolné Rišnovce;Slovakia;SK;48.372948;17.903421;;;
Alsóregmec;Alsóregmec;Hungary;HU;48.465302;21.617161;;;
Alsóremete;Nyizsnyi Remeti;Ukraine;UA;48.256878;22.834813;;;
Alsórépa;Râpa de Jos;Romania;RO;46.937028;24.768449;;;
Alsórépás;Niné Repaše;Slovakia;SK;49.098503;20.712527;;;
Alsórétfalu;Lúky;Slovakia;SK;49.190671;18.220668;;;
Alsóribnice;Niná Rybnica;Slovakia;SK;48.754322;22.152343;;;
Alsóricsó;Dolnı Hrièov;Slovakia;SK;49.229831;18.628469;;;
Alsóróna;Rona de Jos;Romania;RO;47.924399;24.017606;;;
Alsórudaskóc;Ve¾ké Drkovce;Slovakia;SK;48.735051;18.173823;;;
Alsósajó;Niná Slaná;Slovakia;SK;48.725408;20.415991;;;
Alsósárad;Nyizsnye Bolotne;Ukraine;UA;48.266867;23.098989;;;
Alsóschönborn;Sonborn;Ukraine;UA;48.525149;22.874546;;;
Alsósebes;Niná Šebastová;Slovakia;SK;49.025978;21.275951;;;
Alsósimánd;ªimand;Romania;RO;46.428594;21.454748;;;
Alsósipék;Dolné Šipice;Slovakia;SK;48.224627;18.916889;;;
Alsósófalva;Ocna de Jos;Romania;RO;46.524383;25.130594;;;
Alsóstepanó;Dolnı Štefanov;Slovakia;SK;49.366695;19.546226;;;
Alsóstubnya;Dolná Štubòa;Slovakia;SK;48.849312;18.861069;;;
Alsósujtó;Dolné Šutovce;Slovakia;SK;48.802563;18.528826;;;
Alsószabadi;Dolná Lehota;Slovakia;SK;48.885356;19.523035;;;
Alsószabados;Niná Vo¾a;Slovakia;SK;49.223903;21.371352;;;
Alsószakács;Secaº;Romania;RO;45.885;21.819167;;;
Alsószalánk;Slovinky;Slovakia;SK;48.865046;20.815728;;;
Alsószalatna;Slatinka nad Bebravou;Slovakia;SK;48.844245;18.241684;;;
Alsószálláspatak;Sãlaºu de Jos;Romania;RO;45.533319;22.972339;;;
Barátmajor;Mönchenmeierfhof;Austria;AT;47.321980;16.308490;;;
Alsószecse;Dolná Seè;Slovakia;SK;48.17647;18.562895;;;
Alsószelezsény;S¾aany;Slovakia;SK;48.387178;18.322128;;;
Alsószeli;Dolné Saliby;Slovakia;SK;48.105844;17.781458;;;
Zsitvagyarmat;itavce;Slovakia;SK;48.200406;18.301104;;;
Alsószemeréd;Dolné Semerovce;Slovakia;SK;48.112486;18.851727;;;
Alsószénégetõ;Unterkohlstätten;Austria;AT;47.375843;16.324493;;;
Alsószentbenedek;Ivanovci;Slovenia;Sl;46.737781;16.230002;;;
Alsószenterzsébet;Alsószenterzsébet;Hungary;HU;46.745264;16.47729;;;
Alsószentiván;Alsószentiván;Hungary;HU;46.795779;18.732146;;;
Alsószentmárton;Alsószentmárton;Hungary;HU;45.790915;18.304787;;;
Alsószentmihály;Sânmihaiu de Jos;Romania;RO;46.729086;24.874659;;;
Alsószépfalu;Niná Šuòava;Slovakia;SK;49.019271;20.115422;;;
Alsószerdahely;Dolná Streda;Slovakia;SK;48.266667;17.75;;;
Alsószernye;Dolné Srnie;Slovakia;SK;48.797828;17.820371;;;
Alsósziklás;Ninı Skálnik;Slovakia;SK;48.454254;19.969579;;;
Alsószil;Malé Brestovany;Slovakia;SK;48.391001;17.66709;;;
Alsószilvás;Silvaºu de Jos;Romania;RO;45.652017;22.926272;;;
Alsószinevér;Szinevir;Ukraine;UA;48.616574;23.683585;;;
Alsószivágy;Asuaju de Jos;Romania;RO;47.540519;23.222987;;;
Alsószlatina;Nyizsnya Szolotvina;Ukraine;UA;48.548026;22.443668;;;
Alsószolcsva;Sãlciua de Jos;Romania;RO;46.398696;23.421324;;;
Alsószombatfalva;Sâmbãta de Jos;Romania;RO;45.811241;24.818635;;;
Alsószopor;Supuru de Jos;Romania;RO;47.465888;22.793992;;;
Alsószõcs;Suciu de Jos;Romania;RO;47.445901;23.982162;;;
Alsószõllõs;Vinodol;Slovakia;SK;48.18809;18.207777;;;
Alsószölnök;Alsószölnök;Hungary;HU;46.927378;16.201969;;;
Alsósztamora;Stamora Germanã;Romania;RO;45.282099;21.249059;;;
Alsósztregova;Dolná Strehová;Slovakia;SK;48.250052;19.488823;;;
Alsószúcs;Dolná Súèa;Slovakia;SK;48.971056;18.027883;;;
Alsószuha;Alsószuha;Hungary;HU;48.37244;20.504162;;;
Alsótárnok;Dolná Trnávka;Slovakia;SK;48.561215;18.781944;;;
Alsótaróc;Ninı Tvaroec;Slovakia;SK;49.361872;21.184468;;;
Alsótatárlaka;Tãrtãria;Romania;RO;45.931354;23.415371;;;
Alsótelek;Teliucu Inferior;Romania;RO;45.71526;22.888104;;;
Alsótelekes;Alsótelekes;Hungary;HU;48.410472;20.654665;;;
Alsóterény;Dolné Terany;Slovakia;SK;48.178649;18.885467;;;
Alsótisztás;Dolnı Tisovník;Slovakia;SK;48.39973;19.372123;;;
Alsótizsény;Dolná Tiina;Slovakia;SK;49.205816;18.94542;;;
Alsótold;Alsótold;Hungary;HU;47.954075;19.59694;;;
Alsótopa;Topa de Jos;Romania;RO;46.843677;22.233667;;;
Alsótótfalu;Sârbi;Romania;RO;47.061743;22.793252;;;
Alsótök;Tiocu de Jos;Romania;RO;47.059521;23.658916;;;
Alsótõkés;Ninı Klátov;Slovakia;SK;48.729969;21.141377;;;
Alsóturcsek;Dolnı Turèek;Slovakia;SK;48.774191;18.895265;;;
Alsóucsa;Ucea de Jos;Romania;RO;45.786351;24.670783;;;
Alsóújfalu;Satu Nou de Jos;Romania;RO;47.616205;23.5685;;;
Alsóújlak;Alsóújlak;Hungary;HU;47.082223;16.853117;;;
Alsóvadas;Dolnı Vadièov;Slovakia;SK;49.266667;18.85;;;
Alsóvadász;Alsóvadász;Hungary;HU;48.240538;20.905963;;;
Alsóvalkó;Valcãu de Jos;Romania;RO;47.127854;22.741765;;;
Alsóvály;Valice;Slovakia;SK;48.450674;20.195049;;;
Alsóvárad;Tekovskı Hrádok;Slovakia;SK;48.166865;18.55195;;;
Alsóváradja;Oarda de Jos;Romania;RO;46.02165;23.59052;;;
Alsóvarány;Vrani;Romania;RO;45.040428;21.490316;;;
Alsóvárca;Oarşa de Jos;Romania;RO;47.459003;23.131865;;;
Alsóvárosvíz;Orãºtioara de Jos;Romania;RO;45.762929;23.181691;;;
Alsóvásárd;Dolné Trhovište;Slovakia;SK;48.442833;17.908546;;;
Alsóvéghegy;Donji Koncovèak;Croatia;HR;46.50479;16.379591;;;
Alsóvenice;Veneşia de Jos;Romania;RO;45.875446;25.212257;;;
Alsóverecke;Nyizsnyi Vorota;Ukraine;UA;48.772447;23.097401;;;
Alsóveresmart;Mala Kopanya;Ukraine;UA;48.167943;23.095333;;;
Alsóvesztény;Dolné Vestenice;Slovakia;SK;48.716754;18.386389;;;
Alsóvidra;Vidra;Romania;RO;45.911332;26.9067;;;
Alsóvirányos;Niná Sitnica;Slovakia;SK;49.067656;21.793217;;;
Alsóvisnyó;Višòové;Slovakia;SK;48.515558;20.18652;;;
Alsóvisó;Viºeu de Jos;Romania;RO;47.724422;24.365709;;;
Alsóvist;Viºtea de Jos;Romania;RO;45.793449;24.7258;;;
Alsóvízköz;Ninı Svidník;Slovakia;SK;49.381939;21.726126;;;
Nagyrépény;Ve¾ké Ripòany;Slovakia;SK;48.498539;17.977809;;;
Alsózáros;Dolné Zárieèie;Slovakia;SK;49.182928;18.241496;;;
Alsózélle;Dolné Zelenice;Slovakia;SK;48.380959;17.749446;;;
Alsózellõ;Malé Zlievce;Slovakia;SK;48.181764;19.442531;;;
Alsózorlenc;Zorlenşu Mare;Romania;RO;45.455213;21.958031;;;
Alsózubrica;Zubrzyca;Poland;PL;49.537199;19.665982;;;
Alsózúgó;Niné Rubachy;Slovakia;SK;49.281439;20.577343;;;
Alsózsadány;Dolná dana;Slovakia;SK;48.548771;18.74019;;;
Alsózsember;Dolné emberovce;Slovakia;SK;48.245628;18.730719;;;
Alsózsolca;Alsózsolca;Hungary;HU;48.070302;20.881997;;;
Alsózsuk;Jucu de Jos;Romania;RO;46.86037;23.795201;;;
Altorja;Turia;Romania;RO;44.444935;24.475234;;;
Álun;Alun;Romania;RO;45.70816;22.685595;;;
Alváca;Vaşa de Jos;Romania;RO;46.180157;22.596281;;;
Alvinc;Vinşu de Jos;Romania;RO;45.98686;23.490263;;;
Amac;Amaşi;Romania;RO;47.743515;22.919195;;;
Pöstyén;Piešany;Slovakia;SK;48.591797;17.827155;;;
Ambrózfalva;Ambrózfalva;Hungary;HU;46.349542;20.730092;;;
Anarcs;Anarcs;Hungary;HU;48.178258;22.103272;;;
Andaháza;Andièe;Slovakia;SK;49.07234;19.55233;;;
Andocs;Andocs;Hungary;HU;46.648835;17.924341;;;
Andód;Andovce;Slovakia;SK;47.995005;18.104214;;;
Andorháza;Adrijanci;Slovenia;Sl;46.820593;16.234529;;;
Andorhegy;Andrejci;Slovenia;Sl;46.722579;16.226798;;;
Andornaktálya;Andornaktálya;Hungary;HU;47.843644;20.412599;;;
Andrásfa;Andrásfa;Hungary;HU;46.963675;16.793609;;;
Andrásfalu;Liptovská Ondrašová;Slovakia;SK;49.099826;19.590309;;;
Andrásfalva;Karadjordjevo;Serbia;RS;45.290646;19.302017;;;
Andrásföldje;Mali Beograd;Serbia;RS;45.885371;19.633979;;;
Andrásháza;Andrijivka;Ukraine;UA;48.525986;22.550922;;;
Andrási;Paèa;Slovakia;SK;48.682254;20.611386;;;
Andrásmezõ;Oreškoviæ;Serbia;RS;44.831356;20.408621;;;
Andrásnépe;Zobnatica;Serbia;RS;45.859026;19.635499;;;
Andrasóc;Andrijivka;Ukraine;UA;48.525986;22.550922;;;
Andrássytelep;Avrãmeºti;Romania;RO;44.857803;24.165024;;;
Andrástelke;Gornja Rogatica;Serbia;RS;45.80588;19.465309;;;
Andrásvágás;Ondrašovce;Slovakia;SK;48.982498;21.083841;;;
Andrásvára;Oreškoviæ;Serbia;RS;44.831356;20.408621;;;
Andrásszállás;Baèki Sokolac;Serbia;RS;45.849995;19.539773;;;
Andronyásza;Andreneasa;Romania;RO;46.967843;25.024235;;;
Angofa;Angofa;Romania;RO;46.186582;24.78418;;;
Angyalkút;Fântânele;Romania;RO;44.200483;24.089275;;;
Angyalos;Angheluº;Romania;RO;45.879378;25.885885;;;
Aninosza;Aninoasa;Romania;RO;44.743436;23.485057;;;
Annafalva;Hanková;Slovakia;SK;48.75;20.316667;;;
Annavölgy;Annavölgy;Hungary;HU;47.696149;18.666407;;;
Ant;Ant;Romania;RO;46.666346;21.467554;;;
Antalfalva;Kovaèica;Serbia;RS;45.111935;20.620033;;;
Antalóc;Antaloc;Ukraine;UA;48.627781;22.516738;;;
Antalokpataka;Valea lui Antaloc;Romania;RO;46.568982;25.96683;;;
Antos;Antãº;Romania;RO;47.112221;23.581185;;;
Apa;Apa;Romania;RO;47.76324;23.202863;;;
Apáca;Apaşa;Romania;RO;45.950432;25.533116;;;
Apácaszakállas;Opatovskı Sokolec;Slovakia;SK;47.898463;17.809714;;;
Apácatorna;Apácatorna;Hungary;HU;47.111901;17.295398;;;
Apádia;Apadia;Romania;RO;45.390231;22.048163;;;
Apafalva;Opava;Slovakia;SK;48.197073;19.176512;;;
Apagy;Apagy;Hungary;HU;47.959389;21.934847;;;
Apahegy;Viile Apei;Romania;RO;47.781091;23.291035;;;
Apahida;Apahida;Romania;RO;46.802173;23.754639;;;
Apaj;Apaj;Hungary;HU;47.113797;19.087048;;;
Apaj;Opoj;Slovakia;SK;48.306316;17.63829;;;
Apanagyfalu;Nuºeni;Romania;RO;47.098441;24.202632;;;
Aparhant;Aparhant;Hungary;HU;46.329594;18.448686;;;
Apatelek;Mocrea;Romania;RO;46.385388;21.822583;;;
Apátfalva;Apátfalva;Hungary;HU;46.176843;20.574646;;;
Apáthegyalja;Lehôtka pod Brehy;Slovakia;SK;48.5421;19.95;;;
Apáti;Apateu;Romania;RO;46.622388;21.776894;;;
Apáti;Opatovac;Croatia;HR;45.329053;17.434197;;;
Apatin;Apatin;Serbia;RS;45.671761;18.98175;;;
Apátistvánfalva;Apátistvánfalva;Hungary;HU;46.903497;16.26293;;;
Apátka;Opátka;Slovakia;SK;48.787552;21.058551;;;
Apátkeresztúr;Crestur;Romania;RO;47.348471;22.238036;;;
Apátkolos;Ve¾kı Klí;Slovakia;SK;48.533348;18.40481;;;
Apátlévna;Livinské Opatovce;Slovakia;SK;48.642552;18.226218;;;
Apátmarót;Opatove Moravce;Slovakia;SK;48.183575;18.824543;;;
Apátszentmihály;Bohunice;Slovakia;SK;48.333485;18.75148;;;
Apátújfalu;Opatovská Nová Ves;Slovakia;SK;48.114631;19.2769;;;
Apátvarasd;Apátvarasd;Hungary;HU;46.186315;18.480209;;;
Apaújfalu;Nou Sãsesc;Romania;RO;46.112601;24.605093;;;
Apc;Apc;Hungary;HU;47.79635;19.691634;;;
Apold;Apold;Romania;RO;46.127376;24.820359;;;
Áporka;Áporka;Hungary;HU;47.232627;19.012092;;;
Apostag;Apostag;Hungary;HU;46.883245;18.967342;;;
Appony;Oponice;Slovakia;SK;48.468925;18.146137;;;
Aracs;Vranjevo;Serbia;RS;45.643983;20.27267;;;
Arad;Arad;Romania;RO;46.293665;21.893762;;;
Aradi;Aradac;Serbia;RS;45.380479;20.301288;;;
Aradkövi;Cuvin;Romania;RO;46.166392;21.595006;;;
Arany;Uroi;Romania;RO;45.865127;23.032065;;;
Aranyág;Herneacova;Romania;RO;45.857647;21.515632;;;
Aranybánya;Zlatá Baòa;Slovakia;SK;48.898871;18.533053;;;
Aranyida;Zlatá Idka;Slovakia;SK;48.752393;21.005827;;;
Aranykút;Aruncuta;Romania;RO;46.733276;23.968015;;;
Aranymezõ;Bãbeni;Romania;RO;44.978951;24.225176;;;
Aranyos;Arãnieº;Romania;RO;45.794878;22.738248;;;
Aranyosapáti;Aranyosapáti;Hungary;HU;48.212286;22.256743;;;
Aranyosbánya;Baia de Arieº;Romania;RO;46.380814;23.280501;;;
Aranyosd;Zlatníky;Slovakia;SK;48.711147;18.122542;;;
Aranyosegerbegy;Viiºoara;Romania;RO;44.994563;24.162974;;;
Aranyosfõ;Scãriºoara;Romania;RO;45.060823;24.216635;;;
Aranyosgadány;Aranyosgadány;Hungary;HU;46.007912;18.119162;;;
Aranyosgerend;Luncani;Romania;RO;45.622769;23.117896;;;
Aranyosgyéres;Câmpia Turzii;Romania;RO;46.543111;23.884975;;;
Aranyosivánfalva;Cacova Ierii;Romania;RO;46.541786;23.462338;;;
Aranyoslóna;Luna;Romania;RO;46.506911;23.918894;;;
Aranyoslonka;Lunca;Romania;RO;44.34405;26.771226;;;
Aranyosmarót;Zlaté Moravce;Slovakia;SK;48.379482;18.388373;;;
Aranyosmeggyes;Medieºu Aurit;Romania;RO;47.788774;23.136393;;;
Aranyosmohács;Mãhãceni;Romania;RO;46.446686;23.742964;;;
Aranyosmóric;Moruş;Romania;RO;46.960092;24.268465;;;
Aranyospatak;Zlatník;Slovakia;SK;48.966763;21.546622;;;
Aranyospolyán;Poiana;Romania;RO;47.460518;26.57298;;;
Aranyosponor;Ponorel;Romania;RO;46.369278;22.967479;;;
Aranyosrákos;Vãlenii de Arieº;Romania;RO;46.379142;23.240677;;;
Aranyosronk;Runc;Romania;RO;46.500165;23.453335;;;
Aranyosszentmiklós;Sânnicoarã;Romania;RO;46.980365;24.128772;;;
Aranyosszohodol;Sohodol;Romania;RO;45.051191;22.891798;;;
Aranyosvágás;Vadu Moşilor;Romania;RO;46.395009;22.966715;;;
Aranypataka;Zlaté;Slovakia;SK;49.338407;21.201194;;;
Árapatak;Araci;Romania;RO;45.813573;25.650569;;;
Árdánfalva;Ardanovce;Slovakia;SK;48.536558;17.906113;;;
Árdánháza;Ardanove;Ukraine;UA;48.332142;22.951529;;;
Árdány;Ardan;Romania;RO;47.028916;24.668245;;;
Argyas;Arghiºu;Romania;RO;46.936528;23.241229;;;
Arka;Arka;Hungary;HU;48.355443;21.251145;;;
Árki;Archia;Romania;RO;45.843883;22.899236;;;
Árkod;Jarkovac;Serbia;RS;45.270855;20.76283;;;
Árkos;Arcuº;Romania;RO;45.90078;25.775436;;;
Arló;Arló;Hungary;HU;48.176668;20.254196;;;
Ármándombja;Dealu Armanului;Romania;RO;46.890069;25.399772;;;
Arnót;Arnót;Hungary;HU;48.133895;20.859238;;;
Arnótfalva;Arnutovce;Slovakia;SK;48.980955;20.492886;;;
Árok;Jarok;Ukraine;UA;48.641683;22.436478;;;
Árokalja;Arcalia;Romania;RO;47.080733;24.364731;;;
Árokszállás;Grafenschachen;Austria;AT;47.363365;16.066032;;;
Ároktõ;Ároktõ;Hungary;HU;47.728166;20.943408;;;
Árpád;Arpãºel;Romania;RO;46.741827;21.71834;;;
Árpádhalom;Árpádhalom;Hungary;HU;46.617708;20.550509;;;
Árpás;Árpás;Hungary;HU;47.512221;17.397013;;;
Árpástó;Braniºtea;Romania;RO;44.677352;25.578933;;;
Ársica;Arºişa;Romania;RO;46.785874;24.998585;;;
Ártánd;Ártánd;Hungary;HU;47.123727;21.759889;;;
Árvátfalva;Arvãşeni;Romania;RO;46.269672;25.307415;;;
Árvaváralja;Oravskı Podzámok;Slovakia;SK;49.273701;19.352127;;;
Ásgút;Podhorany;Slovakia;SK;48.38494;18.10958;;;
Ásotthalom;Ásotthalom;Hungary;HU;46.194945;19.780754;;;
Assakürt;Nové Sady;Slovakia;SK;48.420288;17.967911;;;
Ásványráró;Ásványráró;Hungary;HU;47.829932;17.499684;;;
Ászár;Ászár;Hungary;HU;47.509266;18.004538;;;
Asszonyfalva;Axente Sever;Romania;RO;46.095036;24.215869;;;
Asszonynépe;Asinip;Romania;RO;46.297706;23.888962;;;
Asszonyrét;Ogradena;Romania;RO;44.674409;22.318194;;;
Asszonyvására;Târguºor;Romania;RO;44.461571;28.419564;;;
Aszaló;Aszaló;Hungary;HU;48.22562;20.954774;;;
Aszó;Osoi;Romania;RO;47.094439;27.798534;;;
Aszód;Aszód;Hungary;HU;47.653273;19.474743;;;
Aszódi ;Aszódi ;Hungary;HU;47.661906;19.479676;;;
Aszófõ;Aszófõ;Hungary;HU;46.928887;17.833395;;;
Aszóirtás;Sohodol;Romania;RO;45.051191;22.891798;;;
Aszós;Osuské;Slovakia;SK;48.62421;17.440461;;;
Asztély;Asztely;Ukraine;UA;48.16749;22.59785;;;
Aszubeszterce;Dorolea;Romania;RO;47.170638;24.639276;;;
Áta;Áta;Hungary;HU;45.936899;18.297316;;;
Átány;Átány;Hungary;HU;47.616509;20.362806;;;
Atkár;Atkár;Hungary;HU;47.719622;19.890163;;;
Hernádszentistván;Drustevná pri Hornáde;Slovakia;SK;48.805242;21.249167;;;
Attala;Attala;Hungary;HU;46.376572;18.066078;;;
Atya;Atea;Romania;RO;47.869712;22.791078;;;
Atyás;Ateaº;Romania;RO;46.917076;21.614951;;;
Atyha;Atia;Romania;RO;46.486767;25.12963;;;
Aurélháza;Rãuşi;Romania;RO;45.673291;20.932765;;;
Avasfalva;Brãneºti;Romania;RO;44.651005;23.45375;;;
Avasfelsõfalu;Negreºti-Oaº;Romania;RO;47.872998;23.427014;;;
Avaslekence;Lechinşa;Romania;RO;47.023117;24.337962;;;
Avaspatak;Valea Seacã;Romania;RO;46.08411;26.117847;;;
Avasújfalu;Certeze;Romania;RO;47.90257;23.46143;;;
Avasújváros;Oraºu Nou;Romania;RO;47.83553;23.291718;;;
Bába;Baba;Romania;RO;46.139189;23.100474;;;
Bábafalva;Babie;Slovakia;SK;49.040481;18.412314;;;
Bábahalma;Bobohalma;Romania;RO;46.351074;24.232249;;;
Bábakút;Fântâna Babii;Romania;RO;46.677422;24.337764;;;
Bábakút;Babicsi;Ukraine;UA;48.437084;22.902609;;;
Babarc;Babarc;Hungary;HU;46.003599;18.550847;;;
Babarcszõlõs;Babarcszõlõs;Hungary;HU;45.899484;18.136406;;;
Babarét;Babínec;Slovakia;SK;48.512219;20.003779;;;
Bábaszék;Babiná;Slovakia;SK;48.434884;19.091083;;;
Bábca;Babşa;Romania;RO;47.457784;22.942827;;;
Babin;Babín;Slovakia;SK;49.332672;19.382997;;;
Babindál;Babindol;Slovakia;SK;48.288954;18.239899;;;
Babkó;Babkov;Slovakia;SK;49.157582;18.640414;;;
Báboc;Bãbuşiu;Romania;RO;46.940303;23.53102;;;
Babócsa;Babócsa;Hungary;HU;46.037111;17.346259;;;
Bábolna;Bobâlna;Romania;RO;45.8782;23.12974;;;
Bábolna;Bábolna;Hungary;HU;47.642607;17.977954;;;
Bábony;Bãbiu;Romania;RO;46.946331;23.062519;;;
Bábonyr;Bábonyr;Hungary;HU;46.946652;23.061337;;;
Babosdöbréte;Babosdöbréte;Hungary;HU;46.814026;16.77959;;;
Babót;Babót;Hungary;HU;47.576002;17.075683;;;
Babsa;Babºa;Romania;RO;45.808745;21.789263;;;
Baca;Başa;Romania;RO;46.017034;22.037293;;;
Bacalár;Bãşãlar;Romania;RO;45.698051;23.017842;;;
Backamadaras;Pãsãreni;Romania;RO;46.491883;24.697804;;;
Bács;Baè;Serbia;RS;45.390921;19.239098;;;
Bács-Kiskun ;Bács-Kiskun ;Hungary;HU;46.580929;19.512853;;;
Bácsalmás;Bácsalmás;Hungary;HU;46.127413;19.331913;;;
Bácsalmási ;Bácsalmási ;Hungary;HU;46.101259;19.27485;;;
Bácsandrás;Baèki Sokolac;Serbia;RS;45.849995;19.539773;;;
Smigóc;Šmigovec;Slovakia;SK;48.891867;22.317511;;;
Bácsbéreg;Baèki Breg;Serbia;RS;45.920146;18.932138;;;
Bácsbokod;Bácsbokod;Hungary;HU;46.124025;19.155818;;;
Bácsborsód;Bácsborsód;Hungary;HU;46.097402;19.158398;;;
Bacsfa;Báè;Slovakia;SK;48.004528;17.377711;;;
Bácsfalu;Baciu;Romania;RO;46.789735;23.527688;;;
Bácsfalva;Bacea;Romania;RO;44.396348;24.635445;;;
Bácsfeketehegy;Feketiæ;Serbia;RS;45.664363;19.698068;;;
Bácsföldvár;Baèko Gradište;Serbia;RS;45.533436;20.027043;;;
Bácsgyulafalva;Teleèka;Serbia;RS;45.795249;19.38081;;;
Bácshadikfalva;Stepanoviæevo;Serbia;RS;45.414803;19.703653;;;
Bácsi;Bãcia;Romania;RO;45.802582;23.006228;;;
Bácsjózseffalva;Novi ednik;Serbia;RS;45.940877;19.672105;;;
Bacska;Baèka;Slovakia;SK;48.441437;22.0515;;;
Bacskafalva;Baštíò;Slovakia;SK;48.560859;18.236212;;;
Bácskeresztúr;Ruski Krstur;Serbia;RS;45.562573;19.420171;;;
Bácskertes;Kupusina;Serbia;RS;45.737777;19.01266;;;
Bacskó;Baèkov;Slovakia;SK;48.758737;21.599782;;;
Bácskossuthfalva;Stara Moravica;Serbia;RS;45.869343;19.466617;;;
Bacsó;Csabanyivka;Ukraine;UA;48.490293;22.545382;;;
Bacsófalva;Poèúvadló;Slovakia;SK;48.376747;18.841762;;;
Bacúr;Bacúrov;Slovakia;SK;48.519954;19.059236;;;
Bácsordas;Karavukovo;Serbia;RS;45.497667;19.196043;;;
Bácspalánka;Baèka Palanka;Serbia;RS;45.25025;19.396084;;;
Bácstelek;Bãcel;Romania;RO;45.758861;25.823072;;;
Bácstopolya;Baèka Topola;Serbia;RS;45.812851;19.630218;;;
Bácstóváros;Tovariševo;Serbia;RS;45.355595;19.324244;;;
Bácsújfalu;Selenèa;Serbia;RS;45.409741;19.300546;;;
Bácsújlak;Baèko Novo Selo;Serbia;RS;45.293593;19.140738;;;
Bácsszentgyörgy;Bácsszentgyörgy;Hungary;HU;45.974753;19.039756;;;
Bácsszentiván;Prigrevica;Serbia;RS;45.677608;19.085404;;;
Bácsszõllõs;Baèki Vinogradi;Serbia;RS;46.126079;19.854637;;;
Bácsszõlõs;Bácsszõlõs;Hungary;HU;46.135231;19.42125;;;
Badacsonytomaj;Badacsonytomaj;Hungary;HU;46.805799;17.514693;;;
Badacsonytördemic;Badacsonytördemic;Hungary;HU;46.812025;17.473686;;;
Badafalva;Weichselbaum;Austria;AT;46.941708;16.184956;;;
Badaló;Badalovo;Ukraine;UA;48.109042;22.642074;;;
Bádok;Bãdeºti;Romania;RO;45.172648;24.857899;;;
Bádon;Badon;Romania;RO;47.246906;22.973757;;;
Badótanya;Bagyiv;Ukraine;UA;48.353859;22.356116;;;
Bag;Bag;Hungary;HU;47.633733;19.47921;;;
Bagamér;Bagamér;Hungary;HU;47.445494;21.991914;;;
Baglad;Baglad;Hungary;HU;46.680555;16.484456;;;
Bagod;Bagod;Hungary;HU;46.876864;16.743758;;;
Bagolyfalu;Hurez;Romania;RO;45.801689;24.952454;;;
Bagolyháza;Bilaszovica;Ukraine;UA;48.832787;23.053388;;;
Bagonya;Bogojina;Slovenia;Sl;46.674849;16.278515;;;
Bagota;Bohatá;Slovakia;SK;48.445042;17.371362;;;
Bágy;Bãdeni;Romania;RO;45.154384;25.399217;;;
Bagyan;Baïan;Slovakia;SK;48.331377;18.840807;;;
Bágyogszovát;Bágyogszovát;Hungary;HU;47.583495;17.367539;;;
Bágyon;Bãdeni;Romania;RO;45.154384;25.399217;;;
Báhony;Báhoò;Slovakia;SK;48.305885;17.433673;;;
Baj;Baj;Hungary;HU;47.649093;18.364463;;;
Baja;Baja;Hungary;HU;46.178497;18.951119;;;
Bajai ;Bajai ;Hungary;HU;46.150802;18.954867;;;
Bajánháza;Bajany;Slovakia;SK;48.603189;22.110691;;;
Bajánsenye;Bajánsenye;Hungary;HU;46.801624;16.384189;;;
Bajcs;Bajè;Slovakia;SK;47.925965;18.223409;;;
Bajesd;Bãieºti;Romania;RO;45.5354;23.01292;;;
Bajfalu;Dãneºti;Romania;RO;46.845566;27.669148;;;
Bajka;Bajka;Slovakia;SK;48.151306;18.517388;;;
Bajmóc;Bojnice;Slovakia;SK;48.792059;18.584628;;;
Bajmócapáti;Opatovce nad Nitrou;Slovakia;SK;48.765376;18.570538;;;
Bajmóclazán;Lazany;Slovakia;SK;48.81693;18.619883;;;
Bajmóctölgyes;Dubnica;Slovakia;SK;49.304458;21.016999;;;
Bajmócska;Bojnièky;Slovakia;SK;48.39214;17.796841;;;
Bajmok;Bajmok;Serbia;RS;45.968791;19.424303;;;
Bajna;Bajna;Hungary;HU;47.655427;18.598045;;;
Bajnokfalva;Buhani;Romania;RO;47.506888;27.276462;;;
Bajor;Bajerov;Slovakia;SK;48.954301;21.110157;;;
Bajorvágás;Bajerovce;Slovakia;SK;49.214088;20.798372;;;
Bajót;Bajót;Hungary;HU;47.726048;18.557546;;;
Bajsa;Bajša;Serbia;RS;45.778494;19.586163;;;
Bajta;Bajtava;Slovakia;SK;47.855828;18.74987;;;
Bak;Bak;Hungary;HU;46.730627;16.845582;;;
Baka;Baka;Slovakia;SK;47.904669;17.526577;;;
Bakabánya;Pukanec;Slovakia;SK;48.364416;18.7202;;;
Bakamezõ;Bacãu de Mijloc;Romania;RO;45.976207;22.09936;;;
Bakháza;Bakháza;Hungary;HU;46.10824;17.359373;;;
Bakóca;Bakóca;Hungary;HU;46.207211;17.999774;;;
Bakónak;Bukovnica;Slovenia;Sl;46.691698;16.324399;;;
Bakonszeg;Bakonszeg;Hungary;HU;47.189531;21.445461;;;
Bakonya;Bãcâia;Romania;RO;46.015736;23.176997;;;
Bakonya;Bakonya;Hungary;HU;46.085289;18.080473;;;
Bakonybánk;Bakonybánk;Hungary;HU;47.466895;17.904045;;;
Bakonybél;Bakonybél;Hungary;HU;47.255109;17.72802;;;
Bakonycsernye;Bakonycsernye;Hungary;HU;47.31948;18.085004;;;
Bakonygyirót;Bakonygyirót;Hungary;HU;47.417931;17.804681;;;
Bakonyjákó;Bakonyjákó;Hungary;HU;47.226333;17.599143;;;
Bakonykoppány;Bakonykoppány;Hungary;HU;47.33048;17.686649;;;
Bakonykúti;Bakonykúti;Hungary;HU;47.245504;18.198024;;;
Bakonynána;Bakonynána;Hungary;HU;47.281971;17.969233;;;
Bakonyoszlop;Bakonyoszlop;Hungary;HU;47.344454;17.923337;;;
Bakonypéterd;Bakonypéterd;Hungary;HU;47.465429;17.797532;;;
Bakonypölöske;Bakonypölöske;Hungary;HU;47.210693;17.488039;;;
Bakonyság;Bakonyság;Hungary;HU;47.400441;17.651627;;;
Bakonysárkány;Bakonysárkány;Hungary;HU;47.44796;18.101499;;;
Bakonyszentiván;Bakonyszentiván;Hungary;HU;47.39072;17.671814;;;
Bakonyszentkirály;Bakonyszentkirály;Hungary;HU;47.363928;17.882601;;;
Bakonyszentlászló;Bakonyszentlászló;Hungary;HU;47.390744;17.804337;;;
Bakonyszombathely;Bakonyszombathely;Hungary;HU;47.476353;17.959408;;;
Bakonyszücs;Bakonyszücs;Hungary;HU;47.342849;17.681372;;;
Bakonytamási;Bakonytamási;Hungary;HU;47.410458;17.731893;;;
Bakostörék;Ve¾ké Teriakovce;Slovakia;SK;48.433612;19.966442;;;
Bakóvár;Bacova;Romania;RO;45.666019;21.552001;;;
Baks;Baks;Hungary;HU;46.549509;20.107145;;;
Baksa;Baksa;Hungary;HU;46.706805;16.552256;;;
Baksafalva;Bocksdorf;Austria;AT;47.144069;16.174521;;;
Baktakék;Baktakék;Hungary;HU;48.363647;21.027614;;;
Baktalórántháza;Baktalórántháza;Hungary;HU;47.999421;22.079359;;;
Baktalórántháza ;Baktalórántháza ;Hungary;HU;47.999421;22.079359;;;
Baktüttös;Baktüttös;Hungary;HU;46.701282;16.818897;;;
Bala;Bãla;Romania;RO;46.71309;24.50019;;;
Balajt;Balajt;Hungary;HU;48.321091;20.788095;;;
Balalény;Bãleni;Romania;RO;45.803046;27.839725;;;
Balánbánya;Bãlan;Romania;RO;46.652595;25.811344;;;
Balassagyarmat;Balassagyarmat;Hungary;HU;48.076883;19.292604;;;
Balassagyarmati ;Balassagyarmati ;Hungary;HU;47.958624;19.42043;;;
Balástya;Balástya;Hungary;HU;46.420759;20.014051;;;
Balátatelep;Bãlata;Romania;RO;45.918159;22.929123;;;
Balaton;Balaton;Hungary;HU;48.094451;20.306057;;;
Balatonakali;Balatonakali;Hungary;HU;46.883085;17.751861;;;
Balatonalmádi;Balatonalmádi;Hungary;HU;47.035766;18.02009;;;
Balatonalmádi ;Balatonalmádi ;Hungary;HU;47.035766;18.02009;;;
Balatonberény;Balatonberény;Hungary;HU;46.710836;17.31932;;;
Balatonboglár;Balatonboglár;Hungary;HU;46.777506;17.65633;;;
Balatoncsicsó;Balatoncsicsó;Hungary;HU;46.926603;17.668866;;;
Balatonederics;Balatonederics;Hungary;HU;46.80914;17.381311;;;
Balatonendréd;Balatonendréd;Hungary;HU;46.83624;17.976594;;;
Balatonfenyves;Balatonfenyves;Hungary;HU;46.717673;17.494531;;;
Balatonfõkajár;Balatonfõkajár;Hungary;HU;47.020293;18.212216;;;
Balatonföldvár;Balatonföldvár;Hungary;HU;46.84912;17.87924;;;
Balatonfüred;Balatonfüred;Hungary;HU;46.956725;17.888892;;;
Balatonfüredi ;Balatonfüredi ;Hungary;HU;46.916544;17.769607;;;
Balatonfûzfõ;Balatonfûzfõ;Hungary;HU;47.062004;18.040968;;;
Balatongyörök;Balatongyörök;Hungary;HU;46.761617;17.350486;;;
Balatonhenye;Balatonhenye;Hungary;HU;46.911971;17.615534;;;
Balatonkenese;Balatonkenese;Hungary;HU;47.034978;18.107968;;;
Balatonkeresztúr;Balatonkeresztúr;Hungary;HU;46.697646;17.370444;;;
Balatonlelle;Balatonlelle;Hungary;HU;46.786762;17.696521;;;
Balatonmagyaród;Balatonmagyaród;Hungary;HU;46.594434;17.175249;;;
Balatonmáriafürdõ;Balatonmáriafürdõ;Hungary;HU;46.701547;17.407499;;;
Balatonõszöd;Balatonõszöd;Hungary;HU;46.806946;17.800222;;;
Balatonrendes;Balatonrendes;Hungary;HU;46.827377;17.585798;;;
Balatonszabadi;Balatonszabadi;Hungary;HU;46.891331;18.133571;;;
Balatonszárszó;Balatonszárszó;Hungary;HU;46.826292;17.834194;;;
Balatonszemes;Balatonszemes;Hungary;HU;46.806042;17.778991;;;
Balatonszentgyörgy;Balatonszentgyörgy;Hungary;HU;46.692196;17.299987;;;
Balatonszepezd;Balatonszepezd;Hungary;HU;46.851827;17.663757;;;
Balatonszõlõs;Balatonszõlõs;Hungary;HU;46.967365;17.829215;;;
Balatonudvari;Balatonudvari;Hungary;HU;46.905422;17.80482;;;
Balatonújlak;Balatonújlak;Hungary;HU;46.675975;17.383049;;;
Balatonvilágos;Balatonvilágos;Hungary;HU;46.964173;18.159314;;;
Balátpuszta;Kupinik;Serbia;RS;45.290836;21.137265;;;
Balavásár;Bãlãuºeri;Romania;RO;46.408966;24.688941;;;
Balázs;Baláe;Slovakia;SK;48.828509;19.186206;;;
Balázsd;Blajova;Romania;RO;45.593267;21.481417;;;
Balazsér;Balazser;Ukraine;UA;48.248661;22.609763;;;
Balázsfa;Blaov;Slovakia;SK;47.986098;17.659135;;;
Balázsfalva;Blaj;Romania;RO;46.173733;23.927306;;;
Balázsi;Vlaèa;Slovakia;SK;49.049553;21.509549;;;
Balázstelke;Blãjel;Romania;RO;46.20679;24.323707;;;
Balázsvágás;Javorina;Slovakia;SK;48.665238;19.752755;;;
Balázsszeg;Izvoarele;Romania;RO;45.038991;25.285489;;;
Báld;Balda;Romania;RO;46.733528;24.143616;;;
Baldóc;Baldovce;Slovakia;SK;48.992275;20.714067;;;
Báldovin;Baldovin;Romania;RO;46.209251;22.718146;;;
Bálinc;Balinş;Romania;RO;45.814506;21.85625;;;
Balinka;Balinka;Hungary;HU;47.312697;18.188944;;;
Bálintfalva;Valentová;Slovakia;SK;48.964776;18.881067;;;
Bálintpuszta;Valentovce;Slovakia;SK;49.175732;21.949267;;;
Balkány;Balkány;Hungary;HU;47.770088;21.860132;;;
Balkfalva;Bãlceºti;Romania;RO;45.109376;23.642382;;;
Ballaháza;Mal;Romania;RO;47.069795;22.814406;;;
Sugó;Šmigovec;Slovakia;SK;48.891867;22.317511;;;
Ballószög;Ballószög;Hungary;HU;46.860552;19.569577;;;
Balmazújváros;Balmazújváros;Hungary;HU;47.611628;21.343738;;;
Balmazújvárosi ;Balmazújvárosi ;Hungary;HU;47.627585;21.143011;;;
Balogd;Blaice;Slovakia;SK;48.667488;21.412283;;;
Balogér;Ratkovská Zdychava;Slovakia;SK;48.611568;20.019444;;;
Balogfala;Blhovce;Slovakia;SK;48.275226;19.953666;;;
Balogiványi;Ivanice;Slovakia;SK;48.329543;20.234957;;;
Balogpádár;Padarovce;Slovakia;SK;48.458199;20.069668;;;
Balogrussó;Hrušovo;Slovakia;SK;48.512582;20.050029;;;
Balogtamási;Tomášovce;Slovakia;SK;48.392814;20.153039;;;
Balogújfalu;Vieska nad Blhom;Slovakia;SK;48.350324;20.199734;;;
Balogunyom;Balogunyom;Hungary;HU;47.155734;16.651873;;;
Balomir;Balomiru de Câmp;Romania;RO;45.938784;23.361089;;;
Balomir;Balomir;Romania;RO;45.58512;22.998929;;;
Balony;Baloò;Slovakia;SK;47.83009;17.670076;;;
Balotafalu;Aciua;Romania;RO;47.682359;23.365031;;;
Balotaszállás;Balotaszállás;Hungary;HU;46.351012;19.536182;;;
Balpataka;Babin Potok;Slovakia;SK;49.125866;21.212996;;;
Balsa;Balºa;Romania;RO;46.028347;23.09971;;;
Balsa;Balsa;Hungary;HU;48.172891;21.537339;;;
Pribóc;Príbovce;Slovakia;SK;48.998428;18.881565;;;
Bálványos;Bálványos;Hungary;HU;46.781662;17.952069;;;
Bálványoscsaba;Ceaba;Romania;RO;47.050093;24.097992;;;
Bálványosváralja;Unguraº;Romania;RO;47.112116;24.051156;;;
Bályok;Balc;Romania;RO;47.297723;22.528581;;;
Bán;Bánovce nad Bebravou;Slovakia;SK;48.725231;18.251169;;;
Bana;Bana;Hungary;HU;47.650506;17.919647;;;
Báncsipkés;Šipkov;Slovakia;SK;48.851139;18.293053;;;
Bánd;Bánd;Hungary;HU;47.122205;17.780635;;;
Bándol;Weiden bei Rechnitz;Austria;AT;47.302048;16.347603;;;
Bánfa;Bánfa;Hungary;HU;45.995978;17.881041;;;
Bánffydongó;Dângãu Mare;Romania;RO;46.755726;23.197941;;;
Bánffyhunyad;Huedin;Romania;RO;46.862957;23.020095;;;
Bánffytanya;Sãrmãºel-Garã;Romania;RO;46.784391;24.203792;;;
Bánffytótfalu;Vale;Romania;RO;45.782084;23.897248;;;
Bánfihegy;Banfi;Croatia;HR;46.510205;16.281219;;;
Bánhorváti;Bánhorváti;Hungary;HU;48.225811;20.50248;;;
Banica;Bãnişa;Romania;RO;45.448131;23.262591;;;
Bánk;Bánk;Hungary;HU;47.925889;19.173592;;;
Banka;Banka;Slovakia;SK;48.578177;17.861256;;;
Bánkaraszna;Krasná Ves;Slovakia;SK;48.834979;18.232703;;;
Bánkeszi;Bánov;Slovakia;SK;48.048789;18.191583;;;
Bánlak;Banloc;Romania;RO;45.387789;21.134283;;;
Bánluzsány;Podluany;Slovakia;SK;48.248199;18.620816;;;
Bánóc;Bánovce nad Ondavou;Slovakia;SK;48.683333;21.816667;;;
Bánokszentgyörgy;Bánokszentgyörgy;Hungary;HU;46.545807;16.783416;;;
Bánostor;Banoštor;Serbia;RS;45.21452;19.615667;;;
Bánpatak;Banpotoc;Romania;RO;45.895438;23.013465;;;
Bánpecsenyéd;Peèeòany;Slovakia;SK;48.674828;18.227577;;;
Bánpetri;Peovka;Slovakia;SK;48.854837;18.161024;;;
Bánréve;Bánréve;Hungary;HU;48.297144;20.355587;;;
Bánruszkóc;Ruskovce;Slovakia;SK;48.777286;22.16314;;;
Bántolmács;Tãlmaci;Romania;RO;46.611064;21.892914;;;
Bántornya;Turnišèe;Slovenia;Sl;46.624889;16.316519;;;
Bántölgyes;Dubnièka;Slovakia;SK;48.768097;18.304074;;;
Bánudvard;Dvorec;Slovakia;SK;48.708309;18.218715;;;
Bánuta;Banuta;Slovenia;Sl;46.601343;16.412036;;;
Bánzabos;Závada;Slovakia;SK;48.292301;19.48332;;;
Bánya;Bãnia;Romania;RO;44.876242;22.045131;;;
Bánya;Baòa;Slovakia;SK;49.216277;21.607673;;;
Bányabükk;Vâlcele;Romania;RO;45.852438;25.705516;;;
Bányácska;Steingraben;Austria;AT;47.594964;13.767118;;;
Bányafalu;Szuszkove;Ukraine;UA;48.540284;22.913;;;
Bányahavas;Muntele Bãiºorii;Romania;RO;46.560432;23.348231;;;
Bányahegy;Pleškovec;Croatia;HR;46.452197;16.370324;;;
Bányapataka;Banské;Slovakia;SK;48.833333;21.583333;;;
Bányavár;Peklenica;Croatia;HR;46.497418;16.474206;;;
Bányavölgy;Duplín;Slovakia;SK;49.233896;21.62628;;;
Bányika;Baica;Romania;RO;47.074836;23.300236;;;
Bánnyíres;Brezolupy;Slovakia;SK;48.701117;18.301481;;;
Bár;Baru;Romania;RO;45.464175;23.159035;;;
Bár;Bár;Hungary;HU;46.051814;18.71725;;;
Barabás;Barabás;Hungary;HU;48.230347;22.430728;;;
Baraca;Barca;Slovakia;SK;48.373199;20.230043;;;
Baracháza;Bãrãteaz;Romania;RO;45.97156;21.092539;;;
Baracka;Braväcovo;Slovakia;SK;48.854736;19.751358;;;
Barackos;Baraşcoº;Romania;RO;46.650783;25.965419;;;
Baracs;Baracs;Hungary;HU;46.911471;18.866591;;;
Baracska;Baracska;Hungary;HU;47.284453;18.756974;;;
Baracska;Bardoòovo;Slovakia;SK;48.111681;18.42133;;;
Baradna;Brádno;Slovakia;SK;48.573333;20.013421;;;
Barafalva;Bara;Romania;RO;45.894722;21.871944;;;
Barakony;Brakoò;Slovakia;SK;48.227336;17.722092;;;
Barancs;Zemplinsky Branè;Slovakia;SK;48.543761;21.720952;;;
Báránd;Báránd;Hungary;HU;47.292012;21.225967;;;
Baranda;Baranda;Serbia;RS;45.082789;20.446237;;;
Baranya;Baraninci;Ukraine;UA;48.562522;22.327352;;;
Baranya ;Baranya ;Hungary;HU;45.971444;18.166925;;;
Baranyabán;Popovac;Croatia;HR;45.808031;18.657229;;;
Baranyahídvég;Baranyahídvég;Hungary;HU;45.846177;18.023802;;;
Baranyajenõ;Baranyajenõ;Hungary;HU;46.270828;18.043388;;;
Baranyakisfalud;Branjina;Croatia;HR;45.825177;18.691369;;;
Baranyaszentgyörgy;Baranyaszentgyörgy;Hungary;HU;46.244073;18.015425;;;
Baranyaszentistván;Petlovac;Croatia;HR;45.758166;18.528344;;;
Baranyavár;Branjin Vrh;Croatia;HR;45.794077;18.611686;;;
Báránykút;Bãrcut;Romania;RO;46.001829;24.921235;;;
Bárányos;Ovèa;Serbia;RS;44.887695;20.535012;;;
Barátfalva;Ollersdorf im Burgenland;Austria;AT;47.186343;16.164464;;;
Baráthely;Brateiu;Romania;RO;46.172371;24.430498;;;
Barátka;Bratca;Romania;RO;46.92943;22.605821;;;
Barátlak;Rohoník;Slovakia;SK;49.116667;21.766667;;;
Giglóc;Giglovce;Slovakia;SK;49.001314;21.730623;;;
Barátos;Brateº;Romania;RO;45.835786;26.070367;;;
Barátostelep;Baraşcoº;Romania;RO;46.650783;25.965419;;;
Barátszabadi;Mníchova Lehota;Slovakia;SK;48.835714;18.061558;;;
Baráttelke;Magnezitovce;Slovakia;SK;48.680809;20.246219;;;
Barátudvar;Mönchof;Austria;AT;47.882006;16.941635;;;
Barbacs;Barbacs;Hungary;HU;47.645648;17.296004;;;
Barbos;Bãrbosu;Romania;RO;45.464875;21.75379;;;
Bárbura;Barbura;Romania;RO;46.005552;22.900435;;;
Bárca;Barca;Slovakia;SK;48.373199;20.230043;;;
Barcánfalva;Bârsana;Romania;RO;47.816864;24.05902;;;
Barcarozsnyó;Râºnov;Romania;RO;45.588228;25.456954;;;
Barcaszentpéter;Sânpetru;Romania;RO;45.712726;25.627542;;;
Barcaújfalu;Satu Nou;Romania;RO;45.77355;25.512832;;;
Barcs;Barcs;Hungary;HU;45.960537;17.463434;;;
Barcsi ;Barcsi ;Hungary;HU;46.008789;17.460787;;;
Bárdfalva;Berbeºti;Romania;RO;44.516881;24.059102;;;
Bárdháza;Barbovo;Ukraine;UA;48.339305;22.769921;;;
Bardoc;Brãduş;Romania;RO;46.129407;25.609558;;;
Bárdossifalva;Bagremovo;Serbia;RS;45.744622;19.81139;;;
Bárdudvarnok;Bárdudvarnok;Hungary;HU;46.326803;17.68509;;;
Báré;Bãrãi;Romania;RO;46.845519;23.908247;;;
Baresd;Bãrãºtii Haşegului;Romania;RO;45.571294;22.943466;;;
Baresd;Bãrãºtii Iliei;Romania;RO;46.024066;22.727582;;;
Bári;Bara;Slovakia;SK;48.424045;21.728523;;;
Barka;Bôrka;Slovakia;SK;48.644255;20.779636;;;
Bárkány;Barcani;Romania;RO;45.688154;26.08514;;;
Barkaszó;Barkaszove;Ukraine;UA;48.367457;22.491314;;;
Barkó;Brekov;Slovakia;SK;48.905682;21.838089;;;
Barkóc;Bakovci;Slovenia;Sl;46.616762;16.146339;;;
Barkócháza;Ruská Volová;Slovakia;SK;48.953709;22.372121;;;
Barlabástanya;Bârlibaº;Romania;RO;46.688965;24.245494;;;
Barlafalu;Borleºti;Romania;RO;44.94651;24.761698;;;
Barlahida;Barlahida;Hungary;HU;46.716476;16.701586;;;
Bárna;Bárna;Hungary;HU;48.100587;19.933845;;;
Barnabás;Kosztilivka;Ukraine;UA;47.992969;24.20048;;;
Barnafalva;Bârna;Romania;RO;45.720713;22.057991;;;
Barnag;Barnag;Hungary;HU;46.979909;17.749485;;;
Báródbeznye;Delureni;Romania;RO;46.814714;24.346554;;;
Báródsomos;Cornişel;Romania;RO;46.980792;22.647197;;;
Baromlak;Borumlaca;Romania;RO;47.215937;22.479346;;;
Barossháza;Pruina;Slovakia;SK;48.998188;18.468604;;;
Barót;Baraolt;Romania;RO;46.075192;25.599624;;;
Barsbaracska;Bardoòovo;Slovakia;SK;48.111681;18.42133;;;
Barsberzence;Tekovská Breznica;Slovakia;SK;48.374281;18.641859;;;
Barsbese;Beša;Slovakia;SK;48.143067;18.401836;;;
Barsendréd;Ondrejovce;Slovakia;SK;48.133381;18.526478;;;
Barsfüss;Trávnica;Slovakia;SK;48.134431;18.333234;;;
Barskapronca;Kopernica;Slovakia;SK;48.685294;18.873997;;;
Barskisfalud;Vieska nad itavou;Slovakia;SK;48.315822;18.364034;;;
Barslédec;Ladice;Slovakia;SK;48.396476;18.261012;;;
Bársonyfalva;Brezon;Romania;RO;45.2447;21.580542;;;
Bársonyos;Bársonyos;Hungary;HU;47.509017;17.921392;;;
Barstaszár;Tesárske Mlyòany;Slovakia;SK;48.345536;18.365705;;;
Barsvörösvár;Èervenı Hrádok;Slovakia;SK;48.300648;18.386292;;;
Bart;Bruty;Slovakia;SK;47.923665;18.578966;;;
Bártfa;Bardejov;Slovakia;SK;49.292687;21.275603;;;
Bártfaújfalu;Bardejovská Nová Ves;Slovakia;SK;49.303114;21.317728;;;
Bartos;Bartošova Lehôtka;Slovakia;SK;48.650738;18.911077;;;
Bartosfalva;Bartošovce;Slovakia;SK;49.195315;21.277297;;;
Barza;Bârsa;Romania;RO;47.325487;23.207701;;;
Barzafalva;Bârzeºti;Romania;RO;46.743731;27.558664;;;
Basahid;Bašaid;Serbia;RS;45.639156;20.413665;;;
Basal;Basal;Hungary;HU;46.073573;17.780885;;;
Baska;Baška;Slovakia;SK;48.706535;21.181155;;;
Baskó;Baskó;Hungary;HU;48.333792;21.335718;;;
Bassóc;Bašovce;Slovakia;SK;48.6331;17.797293;;;
Bástya;Baºtea;Romania;RO;45.877601;22.411075;;;
Baszarabásza;Basarabasa;Romania;RO;46.190646;22.585696;;;
Bát;Bátovce;Slovakia;SK;48.291142;18.744436;;;
Báta;Báta;Hungary;HU;46.128575;18.774911;;;
Bátaapáti;Bátaapáti;Hungary;HU;46.221908;18.598912;;;
Batár;Bratove;Ukraine;UA;48.025847;22.971395;;;
Batarcs;Bãtarci;Romania;RO;48.035636;23.151096;;;
Bátaszék;Bátaszék;Hungary;HU;46.19331;18.724113;;;
Baté;Baté;Hungary;HU;46.35899;17.962779;;;
Bátfa;Batfa;Ukraine;UA;48.570082;22.190052;;;
Batiz;Batiz;Romania;RO;47.829036;22.947668;;;
Batiz;Botiz;Romania;RO;47.829036;22.947668;;;
Batiza;Botiza;Romania;RO;47.668518;24.151517;;;
Batizfalva;Batizovce;Slovakia;SK;49.08077;20.187133;;;
Batizháza;Botez;Romania;RO;46.386746;24.024299;;;
Valcsa;Valèa;Slovakia;SK;49.003585;18.842412;;;
Bátka;Bátka;Slovakia;SK;48.380812;20.168801;;;
Bátmonostor;Bátmonostor;Hungary;HU;46.104795;18.927917;;;
Bátony;Batin;Romania;RO;47.072765;24.061398;;;
Bátonyterenye;Bátonyterenye;Hungary;HU;47.99579;19.82765;;;
Bátonyterenyei ;Bátonyterenyei ;Hungary;HU;47.997798;19.862173;;;
Bátor;Bátor;Hungary;HU;47.991768;20.265657;;;
Bátorfalu;Bátorová;Slovakia;SK;48.132155;19.273319;;;
Bátorhegy;Krajná Bystrá;Slovakia;SK;49.384753;21.675991;;;
Bátorkeszi;Bátorove Kosihy;Slovakia;SK;47.827936;18.408822;;;
Bátorliget;Bátorliget;Hungary;HU;47.757177;22.271179;;;
Bátos;Batoº;Romania;RO;46.884797;24.652554;;;
Batrina;Bãtrâna;Romania;RO;45.791691;22.585493;;;
Batta;Bata;Romania;RO;46.017034;22.037293;;;
Battonya;Battonya;Hungary;HU;46.29045;21.021271;;;
Bátya;Bátya;Hungary;HU;46.487415;18.954523;;;
Bátyafalva;Bãtuşa;Romania;RO;46.050251;22.055259;;;
Battyán;Boany;Slovakia;SK;48.452805;22.103298;;;
Battyánd;Puconci;Slovenia;Sl;46.704335;16.155085;;;
Battyánfalva;Rakièan;Slovenia;Sl;46.651204;16.197411;;;
Battyánháza;> Óbéb (1914);Romania;RO;46.131171;20.300387;;;
Batyk;Batyk;Hungary;HU;46.989893;17.035743;;;
Bátyok;Baèkovík;Slovakia;SK;48.783275;21.432176;;;
Bátyú;Batyove;Ukraine;UA;48.360527;22.390827;;;
Baucár;Bãuşar;Romania;RO;45.516667;22.566667;;;
Bázakerettye;Bázakerettye;Hungary;HU;46.524275;16.728532;;;
Bazéd;Bozed;Romania;RO;46.687953;24.461834;;;
Báziás;Baziaº;Romania;RO;44.817308;21.391329;;;
Bazin;Pezinok;Slovakia;SK;48.318254;17.226333;;;
Bázna;Bazna;Romania;RO;46.200651;24.283427;;;
Bázos;Bazoº;Romania;RO;45.736928;21.496417;;;
Bázosd;Begheiu Mic;Romania;RO;45.834413;22.148131;;;
Bazsi;Bazsi;Hungary;HU;46.932759;17.243933;;;
Béb;Béb;Hungary;HU;47.344034;17.60067;;;
Beckó;Beckov;Slovakia;SK;48.785037;17.919727;;;
Beckókisfalu;Beckovská Vieska;Slovakia;SK;48.752074;17.88676;;;
Becsehely;Becsehely;Hungary;HU;46.447617;16.791653;;;
Becske;Becske;Hungary;HU;47.909102;19.377544;;;
Becskeháza;Becskeháza;Hungary;HU;48.52968;20.835192;;;
Becsó;Beèov;Slovakia;SK;48.650137;19.238183;;;
Becsvölgye;Becsvölgye;Hungary;HU;46.759276;16.681286;;;
Béd;Bádice;Slovakia;SK;48.397756;18.126369;;;
Bede;Bedeni;Romania;RO;46.467342;24.782714;;;
Bedecs;Bedeciu;Romania;RO;46.795041;23.129496;;;
Bedegkér;Bedegkér;Hungary;HU;46.651029;18.060055;;;
Bedellõ;Izvoarele;Romania;RO;45.038991;25.285489;;;
Bedõ;Bedõ;Hungary;HU;47.16399;21.750133;;;
Bedõháza;Bedevlja;Ukraine;UA;48.002193;23.665364;;;
Bégabalázsd;Baloºeºti;Romania;RO;45.782342;22.28962;;;
Bégafõ;Klek;Serbia;RS;45.423452;20.47986;;;
Bégahosszúpatak;Valea Lungã Românã;Romania;RO;45.754154;21.956153;;;
Bégakalodva;Cladova;Romania;RO;45.866256;21.970392;;;
Bégakörtés;Pãru;Romania;RO;45.776976;21.847591;;;
Bégalankás;Luncanii de Jos;Romania;RO;45.719853;22.313353;;;
Bégalaposnok;Lãpuºnic;Romania;RO;45.910304;22.618836;;;
Bégamonostor;Mãnãºtiur;Romania;RO;45.833407;22.065974;;;
Béganyiresd;Breazova;Romania;RO;45.528904;22.79289;;;
Bégapata;Spata;Romania;RO;45.931025;21.873193;;;
Bégaszederjes;Sudriaº;Romania;RO;45.789523;22.028572;;;
Bégaszentes;Sinteºti;Romania;RO;45.875155;22.243222;;;
Bégaszentgyörgy;itište;Serbia;RS;45.482482;20.547787;;;
Bégaszentmihály;Sânmihaiu Român;Romania;RO;45.710732;21.090066;;;
Bégaszuszány;Susani;Romania;RO;45.803183;21.996932;;;
Begecs;Begeè;Serbia;RS;45.237238;19.62252;;;
Alsószalók;Ninı Slavkov;Slovakia;SK;49.102469;20.850356;;;
Behárfalu;Liptovské Beharovce;Slovakia;SK;49.136558;19.579155;;;
Beharóc;Beharovce;Slovakia;SK;49.136558;19.579155;;;
Bejcgyertyános;Bejcgyertyános;Hungary;HU;47.148715;16.923027;;;
Beje;Behynce;Slovakia;SK;48.521863;17.969246;;;
Békafalu;Krottendorf bei Güssing;Austria;AT;47.059757;16.30821;;;
Békás;Békás;Hungary;HU;47.331753;17.350161;;;
Békásd;abnik;Croatia;HR;46.522542;16.378175;;;
Békástelep;Becaº;Romania;RO;46.51694;25.197413;;;
Békató;Krottendorf bei Neuhaus am Klausenbach;Austria;AT;46.84986;16.029392;;;
Béke;Mierovo;Slovakia;SK;48.069437;17.385837;;;
Bekecs;Bekecs;Hungary;HU;48.151605;21.17114;;;
Békés;Békés;Hungary;HU;46.786299;20.982074;;;
Békés ;Békés ;Hungary;HU;46.786299;20.982074;;;
Békéscsaba;Békéscsaba;Hungary;HU;46.684979;21.086692;;;
Békéscsabai ;Békéscsabai ;Hungary;HU;46.657592;20.943627;;;
Békési ;Békési ;Hungary;HU;46.82773;21.071175;;;
Békéssámson;Békéssámson;Hungary;HU;46.42717;20.616873;;;
Békésszentandrás;Békésszentandrás;Hungary;HU;46.871705;20.485128;;;
Beketfa;Beketfa;Slovakia;SK;47.9941;17.505802;;;
Békova;Bikovo;Serbia;RS;46.019736;19.759022;;;
Bekölce;Bekölce;Hungary;HU;48.080476;20.27491;;;
Bél;Beliu;Romania;RO;46.493541;21.986444;;;
Béla;Belá;Slovakia;SK;49.120892;19.861265;;;
Bélabánya;Banská Belá;Slovakia;SK;48.485077;18.955784;;;
Bélád;Beladice;Slovakia;SK;48.344429;18.286771;;;
Bélafalva;Belani;Romania;RO;46.083903;26.186408;;;
Bélagyertyános;Hrabovka;Slovakia;SK;48.933642;18.038465;;;
Bélaház;Boleráz;Slovakia;SK;48.46493;17.499361;;;
Bélajablánc;Iablanişa;Romania;RO;44.951174;22.31375;;;
Bélakorompa;Krempachy;Poland;PL;49.434689;20.162558;;;
Bélamácsó;Maèov;Slovakia;SK;48.020589;17.431038;;;
Bélamajor;Karadjordjevo;Serbia;RS;45.290646;19.302017;;;
Bélapataka;Valaská Belá;Slovakia;SK;48.887181;18.396292;;;
Bélapátfalva;Bélapátfalva;Hungary;HU;48.052978;20.348536;;;
Bélapátfalvi ;Bélapátfalvi ;Hungary;HU;48.065579;20.353833;;;
Bélárkos;Archiº;Romania;RO;46.477856;22.05282;;;
Belatinc;Beltinci;Slovenia;Sl;46.604663;16.238311;;;
Bélaudvarnok;Nitrica;Slovakia;SK;48.704923;18.448045;;;
Bélavár;Bélavár;Hungary;HU;46.121692;17.214929;;;
Bélavézse;Belovea;Slovakia;SK;49.295784;21.368776;;;
Bélbor;Bilbor;Romania;RO;47.066687;25.490772;;;
Béld;Beluj;Slovakia;SK;48.351258;18.893516;;;
Belebova;Belebovo;Ukraine;UA;54.410297;86.293695;;;
Belecska;Belecska;Hungary;HU;46.642455;18.414702;;;
Beled;Beled;Hungary;HU;47.466113;17.089883;;;
Beleg;Beleg;Hungary;HU;46.316053;17.410565;;;
Bélegregy;Agriºu Mic;Romania;RO;46.527837;22.054823;;;
Belejõc;Belejovce;Slovakia;SK;49.374388;21.542646;;;
Belence;Belinş;Romania;RO;45.749596;21.765946;;;
Belényes;Beiuº;Romania;RO;46.666549;22.352918;;;
Belényesforró;Forãu;Romania;RO;46.710544;22.200155;;;
Belényesirtás;Lazuri de Beiuº;Romania;RO;46.592545;22.401644;;;
Belényesörvényes;Urviº de Beiuº;Romania;RO;46.690283;22.157272;;;
Belényessonkolyos;ªuncuiº;Romania;RO;46.674377;22.264373;;;
Belényesújlak;Uileacu de Beiuº;Romania;RO;46.684581;22.221351;;;
Belényesvalány;Vãlanii de Beiuº;Romania;RO;46.700048;22.245408;;;
Belényesszeleste;Sãliºte de Beiuº;Romania;RO;46.651021;22.446463;;;
Belényesszentmárton;Sânmartin de Beiuº;Romania;RO;46.690686;22.322658;;;
Belényesszentmiklós;Sânnicolau de Beiuº;Romania;RO;46.696515;22.114791;;;
Belesz;Blesovce;Slovakia;SK;48.5579;18.039446;;;
Beletháza;Belotinş;Romania;RO;46.076705;21.938392;;;
Belezna;Belezna;Hungary;HU;46.327876;16.939527;;;
Belezsény;Belejeni;Romania;RO;46.626514;22.424973;;;
Bélfenyér;Belfir;Romania;RO;46.737837;21.941452;;;
Bélhagymás;Hãºmaº;Romania;RO;47.191549;23.607218;;;
Belica;Belica;Croatia;HR;46.407028;16.518862;;;
Belinc;Belince;Slovakia;SK;48.46079;18.098042;;;
Bélkalocsa;Cãlacea;Romania;RO;47.118784;23.449115;;;
Bélkaroly;Coroi;Romania;RO;46.409099;24.633891;;;
Bélkirálymezõ;Craiva;Romania;RO;46.583244;21.975334;;;
Bélkismaros;Stoineºti;Romania;RO;46.613021;22.025031;;;
Bella;Belá;Slovakia;SK;49.120892;19.861265;;;
Bellény;Belín;Slovakia;SK;48.340212;20.108034;;;
Bellus;Beluša;Slovakia;SK;49.066178;18.330081;;;
Bélmárkaszék;Seliºtea;Romania;RO;44.984617;22.650105;;;
Bélmezõ;Lunca Mãrcuºului;Romania;RO;45.747713;25.841341;;;
Bélmocsolya;Lunca Teuzului;Romania;RO;46.527825;21.934344;;;
Bélnagymaros;Mãrãuº;Romania;RO;46.594403;22.034298;;;
Beloiannisz;Beloiannisz;Hungary;HU;47.182134;18.825404;;;
Belovár;Bjelovar;Croatia;HR;45.899012;16.842444;;;
Bélörvényes;Urviºu de Beliu;Romania;RO;46.52657;22.08632;;;
Bélr;Bélr;Hungary;HU;47.86323;19.50421;;;
Bélrogoz;Rogoz de Beliu;Romania;RO;46.606273;22.005025;;;
Béltekhodos;Hodiºa;Romania;RO;47.575961;22.97587;;;
Bélvata;Vojtechovce;Slovakia;SK;48.101542;17.475014;;;
Bélzerénd;Zerindu Mic;Romania;RO;46.633655;21.634519;;;
Bellye;Bilje;Croatia;HR;45.603352;18.744511;;;
Belsõsárd;Belsõsárd;Hungary;HU;46.642608;16.471601;;;
Belsõtelep;Fundãtura;Romania;RO;46.54329;24.043574;;;
Belvárdgyula;Belvárdgyula;Hungary;HU;45.972947;18.432745;;;
Bély;Biel;Slovakia;SK;48.408549;22.056386;;;
Béna;Belina;Slovakia;SK;48.242451;19.850505;;;
Benatina;Beòatina;Slovakia;SK;48.80914;22.325428;;;
Bencéd;Benşid;Romania;RO;46.372596;25.172606;;;
Bencenc;Aurel Vlaicu;Romania;RO;45.909726;23.275127;;;
Bendorf;Beneºti;Romania;RO;45.956053;24.500953;;;
Bene;Benya;Ukraine;UA;48.164884;22.761031;;;
Benedekfalu;Beòadiková;Slovakia;SK;49.076417;19.682267;;;
Benedekfalva;Benesat;Romania;RO;47.412111;23.292136;;;
Benedeki;Benedikivci;Ukraine;UA;48.488365;22.580244;;;
Benedekvágása;Beòadikovce;Slovakia;SK;49.233154;21.547853;;;
Benedikó;Beòadovo;Slovakia;SK;49.433788;19.350705;;;
Benefalva;Benice;Slovakia;SK;48.994828;18.871068;;;
Benesháza;Beòuš;Slovakia;SK;48.829919;19.758473;;;
Benge;Šumarina;Croatia;HR;45.777038;18.583263;;;
Benic;Benice;Slovakia;SK;48.994828;18.871068;;;
Benice;Benica;Slovenia;Sl;46.513411;16.503109;;;
Benk;Benk;Hungary;HU;48.301318;22.230393;;;
Benkepatony;Benkova Potôò;Slovakia;SK;48.045364;17.503936;;;
Benkõfalva;Benkovce;Slovakia;SK;48.949703;21.710004;;;
Bény;Bíòa;Slovakia;SK;47.92441;18.631413;;;
Bénye;Bénye;Hungary;HU;47.355342;19.539894;;;
Benyefalva;Beneºti;Romania;RO;45.956053;24.500953;;;
Benyék;Beniakovce;Slovakia;SK;48.769824;21.317161;;;
Bényes;Biniº;Romania;RO;45.752434;21.84632;;;
Benyólehota;Beòova Lehota;Slovakia;SK;49.243308;19.265421;;;
Benyusháza;Beòušovce;Slovakia;SK;49.136287;19.551571;;;
Beocsin;Beoèin;Serbia;RS;45.209059;19.721113;;;
Beocsin Monostor;Manaštir Beoèin;Serbia;RS;45.174983;19.722433;;;
Beodra;Beodra;Serbia;RS;45.714863;20.292437;;;
Bér;Bér;Hungary;HU;47.864868;19.502971;;;
Bérbaltavár;Bérbaltavár;Hungary;HU;47.010109;16.969015;;;
Bércalja;Janovce;Slovakia;SK;49.190508;21.305252;;;
Bercel;Bercel;Hungary;HU;47.869848;19.403519;;;
Bérczes;Dolná Poruba;Slovakia;SK;48.901748;18.290941;;;
Bercse;Bercea;Romania;RO;47.024829;23.186892;;;
Bercsény;Svinná;Slovakia;SK;48.78759;18.160167;;;
Bercsényifalva;Dubrinics;Ukraine;UA;48.804809;22.49723;;;
Berdárka;Brdárka;Slovakia;SK;48.767278;20.338526;;;
Bere;Berea;Romania;RO;47.670534;22.337077;;;
Bereck;Breşcu;Romania;RO;46.044234;26.302137;;;
Beréd;Brebi;Romania;RO;47.209187;23.197136;;;
Béreg;Baèki Breg;Serbia;RS;45.920146;18.932138;;;
Lõrincvágása;Vavrinec;Slovakia;SK;49.402602;16.719849;;;
Beregbárdos;Bukovec;Ukraine;UA;48.860757;22.936136;;;
Beregbükkös;Bukovinka;Ukraine;UA;48.454441;22.819674;;;
Beregdaróc;Beregdaróc;Hungary;HU;48.197093;22.530928;;;
Beregdéda;Deda;Ukraine;UA;48.67687;27.723176;;;
Dolognya;Dlhoòa;Slovakia;SK;49.403553;21.568945;;;
Beregfogaras;Zubovka;Ukraine;UA;48.384875;22.837917;;;
Beregforrás;Rodnikivka;Ukraine;UA;48.697167;22.895244;;;
Bereghalmos;Skuratyivci;Ukraine;UA;48.561577;22.585808;;;
Beregi;Berehi;Ukraine;UA;48.557944;23.711016;;;
Beregkisalmás;Zaluzsje;Ukraine;UA;48.357573;22.855361;;;
Beregkisfalud;Szilce;Ukraine;UA;48.292393;22.996846;;;
Beregkövesd;Kamjanszke;Ukraine;UA;48.279188;22.944356;;;
Beregleányfalva;Lalove;Ukraine;UA;48.404073;22.807623;;;
Beregnagyalmás;Jablunyiv;Ukraine;UA;48.385731;22.858956;;;
Beregpálfalva;Volovica;Ukraine;UA;48.291251;22.905536;;;
Beregpapfalva;Gyilok;Ukraine;UA;48.443946;22.866717;;;
Beregrákos;Rakosin;Ukraine;UA;48.470682;22.595825;;;
Beregrosztoka;Velika Roztoka;Ukraine;UA;48.287528;23.088243;;;
Beregsárrét;Kalnik;Ukraine;UA;49.035316;29.387043;;;
Beregsom;Som;Ukraine;UA;50.436795;30.532705;;;
Beregsurány;Beregsurány;Hungary;HU;48.160813;22.545949;;;
Beregszász;Berehove;Ukraine;UA;48.197187;22.637095;;;
Beregszeg;Šulekovo;Slovakia;SK;48.427498;17.768673;;;
Beregsziklás;Scserbovec;Ukraine;UA;48.292079;25.935837;;;
Beregszilvás;Kuzmine;Ukraine;UA;49.702538;27.08069;;;
Beregszõllõs;Lohove;Ukraine;UA;48.50697;22.681106;;;
Beregújfalu;Beregujfalu;Ukraine;UA;48.279628;22.807531;;;
Berekalja;Podluany;Slovakia;SK;48.248199;18.620816;;;
Berekböszörmény;Berekböszörmény;Hungary;HU;47.065008;21.683592;;;
Berekeresztúr;Bâra;Romania;RO;46.571283;24.870831;;;
Berekfalu;Olešna;Slovakia;SK;49.430812;18.653097;;;
Berekfürdõ;Berekfürdõ;Hungary;HU;47.386709;20.840005;;;
Berekszó;Bârsãu;Romania;RO;45.932417;22.961255;;;
Berekszó;Beregsãu Mare;Romania;RO;45.759296;21.02426;;;
Berekszónémeti;Beregsãu Mic;Romania;RO;45.751892;20.976897;;;
Berekutca;Berecuşa;Romania;RO;45.413533;21.353686;;;
Beremend;Beremend;Hungary;HU;45.784708;18.434557;;;
Berencs;Branè;Slovakia;SK;48.215757;18.141583;;;
Berencsbukóc;Bukovec;Slovakia;SK;48.852789;19.178906;;;
Berencsfalu;Prenèov;Slovakia;SK;48.362938;18.922947;;;
Berencsróna;Rovensko;Slovakia;SK;48.718406;17.37169;;;
Berencsváralja;Podbranè;Slovakia;SK;48.728413;17.457348;;;
Berend;Berindan;Romania;RO;47.785165;23.012219;;;
Berente;Berente;Hungary;HU;48.242596;20.661392;;;
Berény;Beriu;Romania;RO;45.790253;23.191047;;;
Berestye;Breºtea;Romania;RO;45.352431;21.276093;;;
Berestyénfalva;Briešie;Slovakia;SK;48.920574;18.719907;;;
Beresztelke;Breaza;Romania;RO;45.189969;25.650471;;;
Beresztény;Briestené;Slovakia;SK;49.015608;18.507602;;;
Beresztóc;Banatski Brestovac;Serbia;RS;44.726637;20.808445;;;
Beret;Beret;Hungary;HU;48.345155;21.024285;;;
Berethalom;Biertan;Romania;RO;46.136307;24.520958;;;
Beretke;Bretka;Slovakia;SK;48.489184;20.343428;;;
Berettõ;Bracovce;Slovakia;SK;48.645896;21.836029;;;
Berettyócsohaj;Ciuhoi;Romania;RO;47.238081;22.124465;;;
Berettyódéda;Ghida;Romania;RO;47.311121;22.451821;;;
Berettyófarnos;Sfârnaº;Romania;RO;47.235774;22.087885;;;
Berettyókirályi;Chiraleu;Romania;RO;47.305294;22.300242;;;
Berettyókohány;Cohani;Romania;RO;47.321322;22.403498;;;
Berettyószéplak;Suplacu de Barcãu;Romania;RO;47.25898;22.545597;;;
Berettyóújfalu;Berettyóújfalu;Hungary;HU;47.224727;21.535521;;;
Berettyóújfalui ;Berettyóújfalui ;Hungary;HU;47.122962;21.546468;;;
Berezinka;Berezinka;Ukraine;UA;47.203827;30.916348;;;
Berezna;Berezove;Ukraine;UA;47.770304;37.582216;;;
Bereznek;Berezniki;Ukraine;UA;48.512239;23.220508;;;
Bereznik;Berezniki;Ukraine;UA;48.512239;23.220508;;;
Berezó;Brezová pod Bradlom;Slovakia;SK;48.671968;17.536862;;;
Berezóc;Brezovec;Slovakia;SK;48.941182;22.394895;;;
Berezóka;Brezovka;Slovakia;SK;49.271381;21.419958;;;
Berhény;Briheni;Romania;RO;46.499694;22.402778;;;
Berhida;Berhida;Hungary;HU;47.113111;18.132821;;;
Berivoj;Berivoi;Romania;RO;45.745055;24.974255;;;
Berkeháza;Berkovci;Slovenia;Sl;46.752108;16.293289;;;
Berkenye;Berkenye;Hungary;HU;47.887885;19.072611;;;
Berkenyéd;Jarabina;Slovakia;SK;49.338284;20.656047;;;
Berkenyes;Berchieºu;Romania;RO;46.730204;24.038939;;;
Berkes;Borzeºti;Romania;RO;46.239555;26.812843;;;
Berkesd;Berkesd;Hungary;HU;46.076158;18.408533;;;
Berkesz;Berkesz;Hungary;HU;48.092149;21.978725;;;
Berkeszfalu;Percosova;Romania;RO;45.321949;21.35285;;;
Berkeszpataka;Berchezoaia;Romania;RO;47.49842;23.53844;;;
Berki;Rokycany;Slovakia;SK;48.961423;21.136019;;;
Berlád;Bârla;Romania;RO;47.012791;24.556201;;;
Berlistye;Berliºte;Romania;RO;44.99053;21.46685;;;
Bernád;Bernadea;Romania;RO;46.374358;24.456984;;;
Bernátfalva;Valaliky;Slovakia;SK;48.641526;21.29313;;;
Bernecebaráti;Bernecebaráti;Hungary;HU;48.034976;18.914553;;;
Bernic;Brnice;Slovakia;SK;49.136897;19.51206;;;
Berszászka;Berzasca;Romania;RO;44.647125;21.954276;;;
Bértelek;Breboja;Ukraine;UA;48.048379;24.387072;;;
Bertény;Birtin;Romania;RO;46.170092;22.643659;;;
Bertót;Bertotovce;Slovakia;SK;49.023278;21.02327;;;
Berve;Berghin;Romania;RO;46.0763;23.739362;;;
Berzék;Berzék;Hungary;HU;48.024484;20.957311;;;
Berzence;Berzence;Hungary;HU;46.205981;17.148481;;;
Berzenke;Bzenov;Slovakia;SK;48.958429;21.162005;;;
Berzesd;Brãzeºti;Romania;RO;46.398486;23.318512;;;
Berzéte;Brzotín;Slovakia;SK;48.631985;20.497424;;;
Berzétekõrös;Kruná;Slovakia;SK;48.637869;20.471558;;;
Berzevice;Brezovica;Slovakia;SK;48.158868;17.027453;;;
Berzseny;Brezany;Slovakia;SK;49.188921;18.673419;;;
Bés;Beša;Slovakia;SK;48.143067;18.401836;;;
Bese;Stejãrenii;Romania;RO;46.152866;24.722448;;;
Bese;Beša;Slovakia;SK;48.143067;18.401836;;;
Besence;Besence;Hungary;HU;45.895303;17.966333;;;
Besenovo;Bešenovo;Serbia;RS;45.082227;19.704213;;;
Besenovo Monostor;Bešenovaèki Prnjavor;Serbia;RS;45.113228;19.710397;;;
Besenyõ;Viiºoara;Romania;RO;44.994563;24.162974;;;
Besenyõd;Besenyõd;Hungary;HU;47.963407;22.009386;;;
Besenyõfalu;Bešeòová;Slovakia;SK;49.114315;19.439063;;;
Besenyõpetõfalva;Peèeòady;Slovakia;SK;48.483134;17.719268;;;
Besenyõtelek;Besenyõtelek;Hungary;HU;47.698367;20.427895;;;
Besenyszög;Besenyszög;Hungary;HU;47.296001;20.257149;;;
Besimbák;Olteş;Romania;RO;45.802644;24.762271;;;
Besnyõ;Besnyõ;Hungary;HU;47.191559;18.793518;;;
Beszter;Byster;Slovakia;SK;48.716108;21.361254;;;
Beszterce;Bistrişa;Romania;RO;47.138975;24.497552;;;
Besztercebánya;Banská Bystrica;Slovakia;SK;48.738403;19.157349;;;
Besztercsény;Bystrièany;Slovakia;SK;48.658944;18.517726;;;
Beszterec;Beszterec;Hungary;HU;48.156679;21.838259;;;
Béta;Beta;Romania;RO;46.253654;23.813012;;;
Betfalva;Beteºti;Romania;RO;46.290496;25.083346;;;
Betfia;Betfia;Romania;RO;46.974486;22.015668;;;
Bethlen;Beclean;Romania;RO;45.830625;24.922105;;;
Bethlenegres;Agriºu de Sus;Romania;RO;47.151057;24.229823;;;
Bethlenháza;Bethausen;Romania;RO;45.836787;21.959382;;;
Bethlenkeresztúr;Cristur-ªieu;Romania;RO;47.123985;24.29999;;;
Bethlenkörtvélyes;Periºor;Romania;RO;47.312815;24.22569;;;
Betlen;Beclean;Romania;RO;45.830625;24.922105;;;
Betlenfalva;Betlanovce;Slovakia;SK;48.963327;20.342126;;;
Betlenszentmiklós;Sânmiclãuº;Romania;RO;46.247165;24.053401;;;
Betlér;Betliar;Slovakia;SK;48.723905;20.523816;;;
Bezdán;Bezdan;Serbia;RS;45.85017;18.925943;;;
Bezdédfalva;Vieska-Bezdedov;Slovakia;SK;49.134053;18.29808;;;
Bezdédtelek;Bezded;Romania;RO;47.157296;23.476705;;;
Bezedek;Bezedek;Hungary;HU;45.867031;18.586202;;;
Bezenye;Bezenye;Hungary;HU;47.962123;17.216208;;;
Bezeréd;Bezeréd;Hungary;HU;46.869237;17.012956;;;
Bezeréte;Trnava Hora;Slovakia;SK;48.594437;18.963496;;;
Bezi;Bezi;Hungary;HU;47.674809;17.388718;;;
Bezine;Bziny;Slovakia;SK;49.227289;19.322627;;;
Bezõ;Beovce;Slovakia;SK;48.631548;22.153695;;;
Bezsán;Bejan;Romania;RO;45.934812;22.853462;;;
Biatorbágy;Biatorbágy;Hungary;HU;47.470172;18.820035;;;
Bibarcfalva;Biborşeni;Romania;RO;46.092572;25.657884;;;
Biccsefalu;Bytèica;Slovakia;SK;49.184673;18.733;;;
Biccseszabadi;ilinská Lehota;Slovakia;SK;49.244573;18.678783;;;
Bicsérd;Bicsérd;Hungary;HU;46.02256;18.081547;;;
Bicske;Bicske;Hungary;HU;47.490707;18.635805;;;
Bicskei ;Bicskei ;Hungary;HU;47.441527;18.605922;;;
Bidirászaházcsoport;Blidireasa;Romania;RO;46.763944;25.030651;;;
Bigér;Bigãr;Romania;RO;44.665401;22.104741;;;
Bihar;Biharia;Romania;RO;47.151508;21.922188;;;
Biharcsanálos;Cenaloº;Romania;RO;47.244152;22.156873;;;
Bihardancsháza;Bihardancsháza;Hungary;HU;47.22887;21.316107;;;
Bihardiószeg;Diosig;Romania;RO;47.306128;21.974211;;;
Bihardobrosd;Dobreºti;Romania;RO;44.958641;25.122988;;;
Biharfélegyháza;Roºiori;Romania;RO;44.808801;27.385965;;;
Biharfenyves;Brãdet;Romania;RO;46.579272;22.531148;;;
Biharhosszúaszó;Husasãu de Tinca;Romania;RO;46.820576;21.9125;;;
Biharkaba;Cãbeºti;Romania;RO;46.210242;27.437733;;;
Biharkeresztes;Biharkeresztes;Hungary;HU;47.131343;21.719168;;;
Biharkristyór;Criºtioru de Jos;Romania;RO;46.417839;22.544536;;;
Biharlonka;Lunca;Romania;RO;44.34405;26.771226;;;
Biharmagura;Mãgura;Romania;RO;45.004878;24.246372;;;
Biharmezõ;Poiana;Romania;RO;47.460518;26.57298;;;
Biharnagybajom;Biharnagybajom;Hungary;HU;47.212397;21.228519;;;
Biharó;Becherov;Slovakia;SK;49.433591;21.3078;;;
Biharpoklos;Pocola;Romania;RO;46.694958;22.293535;;;
Biharpüspöki;Episcopia Bihorului;Romania;RO;47.118294;21.891903;;;
Biharrósa;Roºia;Romania;RO;44.997344;23.8107;;;
Biharsályi;ªauaieu;Romania;RO;46.937468;21.917195;;;
Biharszenes;Cãrbunari;Romania;RO;44.836635;21.748597;;;
Biharszentandrás;Sântandrei;Romania;RO;47.069117;21.855392;;;
Biharszentelek;Sântelec;Romania;RO;46.958221;22.064679;;;
Biharszentjános;Sântion;Romania;RO;47.096342;21.836603;;;
Bihartorda;Bihartorda;Hungary;HU;47.214106;21.352961;;;
Biharugra;Biharugra;Hungary;HU;46.969392;21.59573;;;
Biharújfalu;Satu Nou;Romania;RO;45.77355;25.512832;;;
Biharvajda;Vaida;Romania;RO;47.252795;21.994771;;;
Bikácfalva;Bicaz;Romania;RO;46.911228;26.090348;;;
Bikács;Bikács;Hungary;HU;46.676393;18.667521;;;
Bikafalva;Tãureni;Romania;RO;46.26952;25.258358;;;
Bikal;Bikal;Hungary;HU;46.331567;18.284811;;;
Bikalat;Fãgetu Ierii;Romania;RO;46.538868;23.522505;;;
Bikás;Bicaºu;Romania;RO;46.810662;24.956087;;;
Bikás;Bujakovo;Slovakia;SK;48.8205;19.68383;;;
Bikfalva;Bicfalãu;Romania;RO;45.759214;25.876174;;;
Bikszád;Bixad;Romania;RO;46.103677;25.869606;;;
Bikszárd;Buková;Slovakia;SK;48.541655;17.395491;;;
Bilak;Domneºti;Romania;RO;47.036677;24.47727;;;
Turócbeszterce;Bystrièká;Slovakia;SK;49.415311;17.973999;;;
Bilin;Bilin;Ukraine;UA;48.108646;24.253577;;;
Bilkaudvard;Bílkove Humence;Slovakia;SK;48.589845;17.242819;;;
Bilke;Bilki;Ukraine;UA;48.332773;23.141386;;;
Billéd;Biled;Romania;RO;45.886383;20.958889;;;
Binóc;Bíòovce;Slovakia;SK;48.504299;17.481944;;;
Birda;Birda;Romania;RO;45.429957;21.343594;;;
Biri;Biri;Hungary;HU;47.812304;21.850949;;;
Birján;Birján;Hungary;HU;45.997479;18.375676;;;
Bírószék;Sodišinci;Slovenia;Sl;46.673003;16.050293;;;
Birtin;Birtin;Romania;RO;46.170092;22.643659;;;
Bisse;Bisse;Hungary;HU;45.907763;18.259228;;;
Biste;Byšta;Slovakia;SK;48.529827;21.544555;;;
Szihelne;Sihelné;Slovakia;SK;49.504332;19.422376;;;
Bisztra;Bistra;Romania;RO;46.376923;23.103729;;;
Bisztracseres;Cireºa;Romania;RO;45.525816;22.388376;;;
Bisztranagyvölgy;Valea Bistrei;Romania;RO;45.525589;22.427383;;;
Bisztranyires;Obreja;Romania;RO;46.171719;23.774189;;;
Bisztraterebes;Chiribiº;Romania;RO;47.311015;22.34184;;;
Bita;Bita;Romania;RO;45.83483;25.975443;;;
Bitérfalva;Bitarová;Slovakia;SK;49.208468;18.666846;;;
Bjelipotok;Oravskı Biely Potok;Slovakia;SK;49.271266;19.560904;;;
Blatnica;Blatnica;Slovakia;SK;48.540916;17.960534;;;
Blenkemezõ;Poiana Blenchii;Romania;RO;47.306967;23.749221;;;
Blezseny;Blãjeni;Romania;RO;46.213889;22.909161;;;
Boba;Boba;Hungary;HU;47.184595;17.187085;;;
Bobót;Bobot;Slovakia;SK;48.832396;18.20594;;;
Bobótszabadja;Bobotská Lehota;Slovakia;SK;48.807807;18.205027;;;
Bobró;Bobrov;Slovakia;SK;49.429173;19.542153;;;
Bobrovnik;Bobrovník;Slovakia;SK;49.116394;19.476245;;;
Bocfölde;Bocfölde;Hungary;HU;46.778896;16.844025;;;
Boconád;Boconád;Hungary;HU;47.642064;20.187311;;;
Bocs;Bociu;Romania;RO;46.779022;22.945987;;;
Bócsa;Bócsa;Hungary;HU;46.617334;19.481615;;;
Bocsár;Boèar;Serbia;RS;45.768806;20.280695;;;
Bocsárd;Boèiar;Slovakia;SK;48.592246;21.235722;;;
Bocska;Bocska;Hungary;HU;46.552789;16.916101;;;
Bocskaihegy;Zebanec;Croatia;HR;46.479278;16.413994;;;
Bocskaikert;Bocskaikert;Hungary;HU;47.645522;21.660948;;;
Bocskó;Bocicãu;Romania;RO;48.096964;23.155513;;;
Bod;Bzince;Slovakia;SK;48.525929;17.924541;;;
Boda;Boda;Hungary;HU;46.080858;18.047835;;;
Bodafalu;Bodice;Slovakia;SK;49.059851;19.574895;;;
Bodajk;Bodajk;Hungary;HU;47.322704;18.233096;;;
Bodmér;Bodmér;Hungary;HU;47.449932;18.536336;;;
Bodófalva;Bodovice;Slovakia;SK;48.736414;21.439256;;;
Bodóhegy;Bodonci;Slovenia;Sl;46.744586;16.0917;;;
Bodóka;Krivosúd-Bodovka;Slovakia;SK;48.819856;17.944931;;;
Bodola;Budila;Romania;RO;45.674088;25.806577;;;
Bodolló;Budulov;Slovakia;SK;48.581165;20.988913;;;
Bodolyabér;Bodolyabér;Hungary;HU;46.197885;18.118597;;;
Bodonhely;Bodonhely;Hungary;HU;47.564913;17.40733;;;
Bodonkút;Vechea;Romania;RO;46.890389;23.492329;;;
Bodonlaka;Bodovce;Slovakia;SK;49.111708;21.177844;;;
Bodonos;Budoi;Romania;RO;47.207467;22.357136;;;
Bodony;Bodony;Hungary;HU;47.942287;20.023812;;;
Bodorfa;Bodorfa;Hungary;HU;47.075971;17.342982;;;
Bodorfalva;Bodorová;Slovakia;SK;48.910491;18.854978;;;
Bodos;Bodoº;Romania;RO;46.076358;25.663127;;;
Bodrog;Bodrog;Romania;RO;46.731638;23.766742;;;
Bodrog;Bodrog;Hungary;HU;48.299361;21.557656;;;
Bodroghalom;Bodroghalom;Hungary;HU;48.303573;21.704878;;;
Bodrogkeresztúr;Bodrogkeresztúr;Hungary;HU;48.15876;21.360658;;;
Bodrogkisfalud;Bodrogkisfalud;Hungary;HU;48.172833;21.357453;;;
Bodrogmezõ;Po¾any;Slovakia;SK;48.469353;21.993405;;;
Bodrogolaszi;Bodrogolaszi;Hungary;HU;48.287651;21.517628;;;
Bodrogszentes;Svätuše;Slovakia;SK;48.430201;21.921972;;;
Bodrogszentmária;Sväta Maria;Slovakia;SK;48.704329;20.673351;;;
Bodrogszerdahely;Streda nad Bodrogom;Slovakia;SK;48.368091;21.757509;;;
Bodrogszög;Klín nad Bodrogom;Slovakia;SK;48.37678;21.732513;;;
Bodrogvécs;Veè;Slovakia;SK;48.407086;21.844659;;;
Bódvalenke;Bódvalenke;Hungary;HU;48.542324;20.803427;;;
Bódvarákó;Bódvarákó;Hungary;HU;48.510342;20.736412;;;
Bódvaszilas;Bódvaszilas;Hungary;HU;48.536846;20.731571;;;
Bódvavendégi;Hosovce;Slovakia;SK;48.572046;20.854194;;;
Bodzaforduló;Ântorsura Buzãului;Romania;RO;45.664097;26.014949;;;
Bodzás;Bany;Slovakia;SK;49.091584;21.637526;;;
Bodzásújlak;Novosad;Slovakia;SK;48.526824;21.741507;;;
Bodzavám;Vama Buzãului;Romania;RO;45.596679;25.993592;;;
Boérfalva;Boiereni;Romania;RO;47.388859;23.930483;;;
Bogács;Bogács;Hungary;HU;47.904118;20.531451;;;
Bogád;Bogád;Hungary;HU;46.083925;18.32219;;;
Bogádmindszent;Bogádmindszent;Hungary;HU;45.906331;18.045186;;;
Bogaras;Bogaraš;Serbia;RS;45.923725;19.945065;;;
Bogárfalva;Bulgãreni;Romania;RO;46.365962;25.252568;;;
Bogáros;Bulgãruº;Romania;RO;45.919472;20.822188;;;
Bogártelke;Bãgara;Romania;RO;46.864144;23.304083;;;
Bogdánd;Bogdand;Romania;RO;47.414682;22.939397;;;
Bogdánháza;Stârciu;Romania;RO;47.090338;22.917551;;;
Bogdány;Bohdanovce nad Trnavou;Slovakia;SK;48.430055;17.5432;;;
Bogdása;Bogdása;Hungary;HU;45.873918;17.789537;;;
Boglárka;Bogliarka;Slovakia;SK;49.280092;21.14851;;;
Bogoltény;Bogâltin;Romania;RO;45.039046;22.414916;;;
Bogorfalva;Bogodinş;Romania;RO;44.898422;21.662344;;;
Bogoszló;Trenèianske Bohuslavice;Slovakia;SK;48.794134;17.858708;;;
Bogy;Bodiu;Romania;RO;34.251617;-91.773357;;;
Bogya;Bodza;Slovakia;SK;47.851509;17.85715;;;
Bogyafalva;Bodeºti;Romania;RO;45.263048;26.160745;;;
Bogyán;Bodjani;Serbia;RS;45.388764;19.104054;;;
Bogyarét;Bodzianske Lúky;Slovakia;SK;47.888504;17.896539;;;
Bogyiszló;Bogyiszló;Hungary;HU;46.383244;18.816697;;;
Bogyós;Bodiná;Slovakia;SK;49.109545;18.56448;;;
Bogyoszló;Bogyoszló;Hungary;HU;47.561554;17.185887;;;
Boholc;Boholş;Romania;RO;45.949673;22.923501;;;
Boholt;Boholt;Romania;RO;45.949673;22.923501;;;
Boica;Bãişa;Romania;RO;46.835803;24.531497;;;
Boica;Boişa;Romania;RO;45.634539;24.260369;;;
Boj;Boiu;Romania;RO;46.263844;24.873034;;;
Bojabirz;Boia Bârzii;Romania;RO;45.848498;22.699818;;;
Boján;Boianu Crasnei;Romania;RO;47.066667;22.883333;;;
Bojca;Boişa;Romania;RO;45.634539;24.260369;;;
Bojt;Bojt;Hungary;HU;47.191533;21.735767;;;
Bojtorjános;Scãiuº;Romania;RO;45.51767;21.919442;;;
Bóka;Boka;Serbia;RS;45.356062;20.835102;;;
Bókaháza;Bókaháza;Hungary;HU;46.773592;17.106031;;;
Bokajalfalu;Bãcãinşi;Romania;RO;45.943605;23.279443;;;
Bokajfelfalu;Ceru-Bãcãinşi;Romania;RO;45.973694;23.271899;;;
Boklya;Bochia;Romania;RO;46.545088;22.00732;;;
Bokod;Bokod;Hungary;HU;47.493413;18.242079;;;
Bokor;Bokor;Hungary;HU;47.933645;19.540416;;;
Bokorvány;Bucuroaia;Romania;RO;46.93154;22.18299;;;
Bokos;Bucoºnişa;Romania;RO;45.299998;22.266662;;;
Bokrács;Bokraèi;Slovenia;Sl;46.73086;16.196021;;;
Boksa;Bokša;Slovakia;SK;49.210124;21.624457;;;
Boksán;Bocºa;Romania;RO;44.754153;24.054352;;;
Boksánbánya;Bocºa;Romania;RO;44.754153;24.054352;;;
Bokszeg;Bocsig;Romania;RO;46.422387;21.943296;;;
Boldog;Boldog;Hungary;HU;47.6012;19.695429;;;
Boldogasszony;Frauenkirchen;Austria;AT;47.837745;16.924136;;;
Boldogasszonyfa;Boldogasszonyfa;Hungary;HU;46.179968;17.840641;;;
Boldogasszonyfalva;Gospodjinci;Serbia;RS;45.402555;19.985937;;;
Boldogfa;Boldog;Slovakia;SK;48.235332;17.425227;;;
Boldogfalva;Sântãmãrie;Romania;RO;46.241838;24.146883;;;
Boldogkõújfalu;Boldogkõújfalu;Hungary;HU;48.318424;21.241132;;;
Boldogkõváralja;Boldogkõváralja;Hungary;HU;48.338214;21.23781;;;
Boldogváros;Seliºtat;Romania;RO;45.98597;24.860689;;;
Boldor;Boldur;Romania;RO;45.694168;21.776659;;;
Boldva;Boldva;Hungary;HU;48.217181;20.788417;;;
Bolesó;Bolešov;Slovakia;SK;49.006029;18.134639;;;
Bolgárcserged;Cergãu Mic;Romania;RO;46.083085;23.940682;;;
Bolgárom;Bulhary;Slovakia;SK;48.293133;19.847746;;;
Bolgártelep;Colonia Bulgarã;Romania;RO;46.099743;20.413385;;;
Bolhás;Bolhás;Hungary;HU;46.263335;17.271883;;;
Bolhó;Bolhó;Hungary;HU;46.039168;17.295423;;;
Bolkács;Bãlcaciu;Romania;RO;46.18877;24.060511;;;
Bolmány;Bolman;Croatia;HR;45.723993;18.514327;;;
Bolvás;Bolvaºnişa;Romania;RO;45.345577;22.310117;;;
Bolvásvölgy;Valea Bolvaºnişa;Romania;RO;44.946022;22.390191;;;
Boly;Bo¾;Slovakia;SK;48.475784;21.936971;;;
Bóly;Bóly;Hungary;HU;45.96928;18.516149;;;
Bólya;Buia;Romania;RO;45.973214;24.275346;;;
Bolyár;Boliarov;Slovakia;SK;48.803611;21.432013;;;
Bólyi ;Bólyi ;Hungary;HU;45.977917;18.501912;;;
Bolyk;Bo¾kovce;Slovakia;SK;48.337114;19.768627;;;
Boncafalva;Bonşeºti;Romania;RO;45.677082;27.048264;;;
Bonchida;Bonşida;Romania;RO;46.912131;23.815706;;;
Boncnyíres;Bonş;Romania;RO;46.98925;23.925476;;;
Boncodfölde;Boncodfölde;Hungary;HU;46.868791;16.738489;;;
Bondoraszó;Budureasa;Romania;RO;46.679182;22.495174;;;
Bongárd;Bungard;Romania;RO;45.77568;24.22373;;;
Bónisfalva;Bonisdorf;Austria;AT;46.842301;16.040481;;;
Bonnya;Bonnya;Hungary;HU;46.594552;17.901178;;;
Bontesd;Bunteºti;Romania;RO;46.6128;22.468561;;;
Bonyha;Bahnea;Romania;RO;46.374045;24.479028;;;
Bonyhád;Bonyhád;Hungary;HU;46.298421;18.532191;;;
Bonyhádi ;Bonyhádi ;Hungary;HU;46.338487;18.500586;;;
Bonyhádvarasd;Bonyhádvarasd;Hungary;HU;46.370338;18.479966;;;
Borbánd;Bãrãbanş;Romania;RO;46.096373;23.587097;;;
Borbátviz;Râu Bãrbat;Romania;RO;45.484202;23.090214;;;
Borberek;Vurpãr;Romania;RO;46.000983;23.480497;;;
Borberek;Valea Vinului;Romania;RO;47.715282;23.192818;;;
Borbolya;Walbersdorf;Austria;AT;47.742472;16.418125;;;
Borcfalu;Borcová;Slovakia;SK;48.925586;18.848086;;;
Borcsa;Borèa;Serbia;RS;44.882196;20.457607;;;
Borcsány;Borèany;Slovakia;SK;48.656379;18.219376;;;
Borcsiz;Borèice;Slovakia;SK;48.991363;18.121878;;;
Bord;Bord;Romania;RO;46.393689;24.22694;;;
Borda;Burda;Romania;RO;46.695127;22.478954;;;
Bordány;Bordány;Hungary;HU;46.321666;19.921674;;;
Bordos;Bordoºiu;Romania;RO;46.396915;24.785691;;;
Borgáta;Borgáta;Hungary;HU;47.161833;17.079863;;;
Borgóbeszterce;Bistrişa Bârgãului;Romania;RO;47.197086;24.789868;;;
Borgóprund;Prundu Bârgãului;Romania;RO;47.220214;24.741652;;;
Borgótiha;Tiha Bârgãului;Romania;RO;47.22532;24.763227;;;
Borhalom;Boboviscse;Ukraine;UA;48.527683;22.670097;;;
Borháza;Boreèa;Slovenia;Sl;46.835557;16.153641;;;
Borhegy;Weinberg im Burgenland;Austria;AT;47.390726;16.168982;;;
Borhida;Borejci;Slovenia;Sl;46.680301;16.099742;;;
Bori;Bory;Slovakia;SK;48.179043;18.748189;;;
Borisfalva;Kleinwarasdorf;Austria;AT;47.541208;16.586171;;;
Borjád;Borjád;Hungary;HU;45.935321;18.46836;;;
Borkút;Borcut;Romania;RO;47.481998;23.840714;;;
Borló;Borlova;Romania;RO;45.367375;22.352001;;;
Boró;Borov;Slovakia;SK;49.301596;21.886502;;;
Boróc;Obrovac;Serbia;RS;45.320216;19.35144;;;
Boród;Brid;Ukraine;UA;48.344181;23.000442;;;
Borodnó;Brodno;Slovakia;SK;49.254908;18.756343;;;
Borókás;Jedlinka;Slovakia;SK;49.398624;21.37082;;;
Boronamezõ;Ponişa;Romania;RO;45.141925;24.486834;;;
Boronás;Brvnište;Slovakia;SK;49.213717;18.421557;;;
Borosbenedek;Benic;Romania;RO;46.211648;23.59253;;;
Borosberend;Berindia;Romania;RO;46.321022;22.160048;;;
Borosbocsárd;Bucerdea Vinoasã;Romania;RO;46.164152;23.525875;;;
Borosd;Weingraben;Austria;AT;47.525077;16.357118;;;
Borosgödör;Inzenhof;Austria;AT;46.920733;15.531232;;;
Borosjenõ;Ineu;Romania;RO;46.545775;25.761091;;;
Boroskrakkó;Cricãu;Romania;RO;46.176421;23.568993;;;
Borosnya;Brusnica;Slovakia;SK;49.153622;21.698916;;;
Borospatak;Valea Boroº;Romania;RO;46.547391;25.988489;;;
Borosrósa;Roºia;Romania;RO;44.997344;23.8107;;;
Borossebes;Sebiº;Romania;RO;47.006207;24.715634;;;
Borostelek;Borºa;Romania;RO;47.407882;27.357635;;;
Borostyán;Novi Beznovci;Slovenia;Sl;46.589838;16.161641;;;
Borostyánkõ;Bernstein;Austria;AT;47.416309;16.256971;;;
Boroszló;Brestov;Slovakia;SK;48.872898;21.346357;;;
Borosznó;Brusno;Slovakia;SK;48.826839;19.356033;;;
Borosznok;Brusník;Slovakia;SK;48.299763;19.401325;;;
Lohó;Lohove;Ukraine;UA;63.405082;10.456952;;;
Borota;Borota;Hungary;HU;46.265583;19.222589;;;
Borrév;Buru;Romania;RO;46.505201;23.600667;;;
Bors;Borº;Romania;RO;47.117015;21.802372;;;
Borsa;Borºa;Romania;RO;47.407882;27.357635;;;
Borsaújfalu;Vultureni;Romania;RO;46.960755;23.556914;;;
Borsfa;Borsfa;Hungary;HU;46.50122;16.783491;;;
Borsi;Borša;Slovakia;SK;48.392132;21.706372;;;
Borsmonostor;Klostermarienberg;Austria;AT;47.422873;16.564918;;;
Borsod-Abaúj-Zemplén ;Borsod-Abaúj-Zemplén ;Hungary;HU;48.239794;21.135347;;;
Borsodbóta;Borsodbóta;Hungary;HU;48.211813;20.396382;;;
Borsodgeszt;Borsodgeszt;Hungary;HU;47.958252;20.69263;;;
Borsodivánka;Borsodivánka;Hungary;HU;47.698833;20.656337;;;
Borsodnádasd;Borsodnádasd;Hungary;HU;48.122567;20.245305;;;
Borsodszentgyörgy;Borsodszentgyörgy;Hungary;HU;48.188095;20.203311;;;
Borsodszirák;Borsodszirák;Hungary;HU;48.261055;20.766952;;;
Borsómezõ;Inuri;Romania;RO;46.04454;23.454688;;;
Borsós;Hrachovište;Slovakia;SK;48.716307;17.729768;;;
Borsosberény;Borsosberény;Hungary;HU;47.976363;19.117491;;;
Borszeg;Burzuc;Romania;RO;47.156015;22.171903;;;
Borszék;Borsec;Romania;RO;46.963628;25.561322;;;
Borszörcsök;Borszörcsök;Hungary;HU;47.134274;17.40377;;;
Borszucsina;Borszucsino;Ukraine;UA;48.832787;23.053388;;;
Borválaszút;Cruciºor;Romania;RO;47.693986;23.23001;;;
Borz;Borz;Romania;RO;46.673618;22.191395;;;
Borza;Bârza;Romania;RO;46.574152;24.146232;;;
Borzánt;Borzont;Romania;RO;46.695382;25.449913;;;
Borzás;Boziaº;Romania;RO;46.317903;24.299081;;;
Borzasfalva;Boteºti;Romania;RO;47.051998;26.748631;;;
Borzatanya;Borzia;Romania;RO;46.969742;24.932402;;;
Borzavár;Borzavár;Hungary;HU;47.291552;17.827182;;;
Borzfalva;Borszucsino;Ukraine;UA;48.832787;23.053388;;;
Borzova;Silická Brezová;Slovakia;SK;48.532345;20.485486;;;
Bós;Boº;Romania;RO;45.752016;22.837415;;;
Bosác;Bošáca;Slovakia;SK;48.850819;17.845809;;;
Bosányneprõd;Neporadza;Slovakia;SK;48.363212;20.392037;;;
Bosoród;Boºorod;Romania;RO;45.683702;23.090992;;;
Bosta;Bosta;Hungary;HU;45.949646;18.210985;;;
Botadúlõ;Botei;Romania;RO;46.639397;24.131978;;;
Botfalu;Bod;Romania;RO;45.763126;25.639242;;;
Botfalva;Botfalva;Ukraine;UA;48.582597;22.209427;;;
Botfej;Botfei;Romania;RO;46.547252;22.06394;;;
Botháza;Boteni;Romania;RO;45.177062;25.130193;;;
Bótos;Botoš;Serbia;RS;45.309561;20.638274;;;
Botpalád;Botpalád;Hungary;HU;48.029336;22.805887;;;
Bótrágy;Batragy;Ukraine;UA;48.323012;22.414033;;;
Bottelep;Colonia Bod;Romania;RO;45.755295;25.59772;;;
Bottornya;Podturen;Croatia;HR;46.465769;16.545832;;;
Bottyánfalva;Botineºti;Romania;RO;45.738541;22.090916;;;
Botykapeterd;Botykapeterd;Hungary;HU;46.048961;17.866321;;;
Bóz;Boz;Romania;RO;45.947705;23.801673;;;
Bózes;Bozeº;Romania;RO;45.973691;23.172132;;;
Bozitapuszta;Buzitka;Slovakia;SK;48.327179;19.809037;;;
Bozitópuszta;Velike Livade;Serbia;RS;45.620059;20.642091;;;
Bozók;Bzovík;Slovakia;SK;48.317667;19.078523;;;
Bozókaslók;Jalšovík;Slovakia;SK;48.323515;19.107607;;;
Bozókszabadi;Bzovská Lehôtka;Slovakia;SK;48.402426;19.131763;;;
Bozósd;Rãdeºti;Romania;RO;44.622615;24.434563;;;
Bozovics;Bozovici;Romania;RO;44.929844;22.000379;;;
Bozsaly;Bogei;Romania;RO;47.265504;22.360792;;;
Bozsok;Bozsok;Hungary;HU;47.322313;16.488697;;;
Bozsor;Bujor;Romania;RO;46.65534;24.173422;;;
Bozsor;Traian Vuia;Romania;RO;45.800121;22.068533;;;
Bozsortanya;Bujor-Hodaie;Romania;RO;46.644947;24.168328;;;
Bozzai;Bozzai;Hungary;HU;47.207331;16.765274;;;
Bózsva;Bózsva;Hungary;HU;48.474642;21.467721;;;
Bõ;Bõ;Hungary;HU;47.369123;16.815452;;;
Bõcs;Bõcs;Hungary;HU;48.038546;20.971644;;;
Bõd;Beudiu;Romania;RO;47.062761;24.170454;;;
Böde;Böde;Hungary;HU;46.836047;16.717255;;;
Bödeháza;Bödeháza;Hungary;HU;46.641174;16.402558;;;
Bödön;Bidiu;Romania;RO;47.044281;24.235733;;;
Bõfalu;Behynce;Slovakia;SK;48.521863;17.969246;;;
Bögellõ;Bohe¾ov;Slovakia;SK;47.918984;17.6946;;;
Bögölypatony;Dolná Potôò;Slovakia;SK;48.050826;17.585351;;;
Bögöt;Bögöt;Hungary;HU;47.252015;16.829495;;;
Bögöte;Bögöte;Hungary;HU;47.087327;17.043672;;;
Bögöz;Mugeni;Romania;RO;46.257246;25.220443;;;
Böhönye;Böhönye;Hungary;HU;46.407127;17.38634;;;
Bökény;Buchin;Romania;RO;45.366667;22.25;;;
Böki;Chabany;Slovakia;SK;48.841353;21.274253;;;
Bököny;Bököny;Hungary;HU;47.732259;21.752458;;;
Bölcske;Bölcske;Hungary;HU;46.74026;18.969519;;;
Bölcsõs;Kolibabovce;Slovakia;SK;48.720873;22.255563;;;
Bölön;Belin;Romania;RO;45.933357;25.570843;;;
Bölönpatak;Belin-Vale;Romania;RO;45.932371;25.608776;;;
Bõlzse;Bela;Slovakia;SK;48.580507;21.273158;;;
Bõny;Bõny;Hungary;HU;47.651918;17.869198;;;
Börcs;Börcs;Hungary;HU;47.685036;17.500716;;;
Börvely;Berveni;Romania;RO;47.755972;22.472875;;;
Börvény;Vânãtori;Romania;RO;45.529791;28.015608;;;
Börvinges;Barvinok;Ukraine;UA;48.56787;22.349836;;;
Börzény;Bârza;Romania;RO;46.574152;24.146232;;;
Börzönce;Börzönce;Hungary;HU;46.579592;16.888984;;;
Bõs;Gabèíkovo;Slovakia;SK;47.870982;17.578439;;;
Bõsárkány;Bõsárkány;Hungary;HU;47.690455;17.249375;;;
Bõsháza;Biuºa;Romania;RO;47.423247;23.245039;;;
Bõszénfa;Bõszénfa;Hungary;HU;46.229918;17.850511;;;
Bözöd;Bezid;Romania;RO;46.4066;24.921088;;;
Bözödújfalu;Bezidu Nou;Romania;RO;46.420474;24.908054;;;
Brád;Brad;Romania;RO;46.72225;26.95737;;;
Bradacel;Brãdãşel;Romania;RO;45.987316;22.531783;;;
Branyicska;Brãniºca;Romania;RO;45.915537;22.78007;;;
Brassó;Braºov;Romania;RO;45.652309;25.610275;;;
Brassó;Brãºeu;Romania;RO;46.078173;22.583518;;;
Brazília;Bagremovo;Serbia;RS;45.744622;19.81139;;;
Brázova;Breazova;Romania;RO;45.528904;22.79289;;;
Breáza;Breaza;Romania;RO;45.189969;25.650471;;;
Bréb;Breb;Romania;RO;47.748541;23.904939;;;
Brébfalva;Brebeni;Romania;RO;44.362255;24.446423;;;
Bredét;Brãdet;Romania;RO;46.579272;22.531148;;;
Bresztó;Bresztyiv;Ukraine;UA;45.450989;19.898952;;;
Brettyelin;Bretelin;Romania;RO;45.880247;22.817789;;;
Breza;Breza;Slovakia;SK;49.398445;19.368831;;;
Breznóbánya;Brezno;Slovakia;SK;48.805335;19.640961;;;
Brezovica;Brezovica;Slovakia;SK;48.158868;17.027453;;;
Brezóvölgy;Brestovec;Slovakia;SK;47.879062;17.843099;;;
Briznik;Brâznic;Romania;RO;45.911747;22.650993;;;
Bród;Brid;Ukraine;UA;48.344181;23.000442;;;
Bród;Slavonski Brod;Croatia;HR;45.171352;18.01354;;;
Brogyán;Brodzany;Slovakia;SK;48.610506;18.341165;;;
Brotuna;Brotuna;Romania;RO;46.198517;22.603906;;;
Brulya;Bruiu;Romania;RO;45.874675;24.700858;;;
Brunóc;Brunovce;Slovakia;SK;48.672649;17.854557;;;
Brusztópatak;Lopusanka;Ukraine;UA;48.513054;23.076753;;;
Brusztura;Lopuhiv;Ukraine;UA;48.367844;23.971686;;;
Ilkóc;Ilkivci;Ukraine;UA;9.931233;76.267304;;;
Buccari;Bakar;Croatia;HR;45.307148;14.537583;;;
Bucló;Buclovany;Slovakia;SK;49.154697;21.366116;;;
Búcs;Búè;Slovakia;SK;47.807725;18.44219;;;
Bucsa;Bucsa;Hungary;HU;47.204248;20.99673;;;
Bucsány;Buèany;Slovakia;SK;48.418642;17.698193;;;
Bucsesd;Buceº;Romania;RO;46.187687;22.943302;;;
Bucsin;Bucin;Romania;RO;46.689325;25.425108;;;
Bucsin;Bucin;Romania;RO;46.689325;25.425108;;;
Bucsonfalva;Buteasa;Romania;RO;47.448303;23.549878;;;
Bucsony;Bucium;Romania;RO;45.740269;23.183831;;;
Bucsu;Bucsu;Hungary;HU;47.261772;16.49443;;;
Bucsuháza;Buèuháza;Slovakia;SK;48.031251;17.348948;;;
Bucsum;Bucium;Romania;RO;45.740269;23.183831;;;
Bucsum;Bucium;Romania;RO;45.740269;23.183831;;;
Búcsúszentlászló;Búcsúszentlászló;Hungary;HU;46.78823;16.930815;;;
Bucsuta;Bucsuta;Hungary;HU;46.564488;16.834099;;;
Budafalva;Budafa;Slovakia;SK;47.995145;17.459899;;;
Budaháza;Budince;Slovakia;SK;48.546033;22.121334;;;
Budajenõ;Budajenõ;Hungary;HU;47.555732;18.803841;;;
Budakalász;Budakalász;Hungary;HU;47.619335;19.046787;;;
Budakeszi;Budakeszi;Hungary;HU;47.509944;18.929382;;;
Budakeszi ;Budakeszi ;Hungary;HU;47.509944;18.929382;;;
Budamér;Budimír;Slovakia;SK;48.796492;21.299091;;;
Budaörs;Budaörs;Hungary;HU;47.460019;18.954182;;;
BUDAPEST;BUDAPEST;Hungary;HU;47.498382;19.040471;;;
Budapest;Budapest;Hungary;HU;47.497912;19.040235;;;
Budapest 21. ker.;Budapest 21. ker.;Hungary;HU;47.421259;19.062297;;;
Budás;Budièka;Slovakia;SK;48.599395;19.014101;;;
Budaszállás;Budiná;Slovakia;SK;48.456095;19.478177;;;
Budatelke;Budeºti;Romania;RO;46.612817;27.953214;;;
Budatin;Budatín;Slovakia;SK;49.237563;18.738673;;;
Budfalva;Budeºti;Romania;RO;46.612817;27.953214;;;
Budfalva;Budinci;Slovenia;Sl;46.85841;16.25932;;;
Budinc;Budinş;Romania;RO;45.770178;21.674809;;;
Budinovci;Budjanovci;Serbia;RS;44.894362;19.864331;;;
Budurló;Budurleni;Romania;RO;46.919142;24.423787;;;
Bugac;Bugac;Hungary;HU;46.688899;19.682144;;;
Bugacpusztaháza;Bugacpusztaháza;Hungary;HU;46.701078;19.635808;;;
Buglóc;Schreibersdorf;Austria;AT;47.397774;16.154252;;;
Bugyfalva;Budeºti;Romania;RO;46.612817;27.953214;;;
Bugyi;Bugyi;Hungary;HU;47.221978;19.149034;;;
Bugyikfala;Budikovany;Slovakia;SK;48.48505;20.091122;;;
Buj;Buj;Hungary;HU;48.099078;21.646486;;;
Buják;Buják;Hungary;HU;47.884822;19.545099;;;
Bujánháza;Boineºti;Romania;RO;47.911617;23.346178;;;
Bujdos;Vâlcelele;Romania;RO;44.939395;26.378296;;;
Bujtur;Buituri;Romania;RO;45.772158;22.907572;;;
Bukóc;Bukovec;Ukraine;UA;49.266399;21.712026;;;
Bukóc;Pohronskı Bukovec;Slovakia;SK;48.844733;19.382235;;;
Bukova;Bucova;Romania;RO;45.508605;22.638424;;;
Bukovec;Bucovãş;Romania;RO;44.292798;23.746867;;;
Bukovina;Bukovina;Slovakia;SK;49.076117;18.497442;;;
Bukovinapodszkle;Bukowina-Podskle;Poland;PL;49.518626;19.788303;;;
Bukovinka;Bukovinka;Ukraine;UA;48.454441;22.819674;;;
Bukuresd;Bucureºci;Romania;RO;46.128152;22.903175;;;
Bulbuk;Bulbuc;Romania;RO;46.021068;23.294543;;;
Bulcs;Bulci;Romania;RO;46.003787;22.105249;;;
Bulcsu;Bucsu;Ukraine;UA;47.517955;19.063607;;;
Bulkeszi;Magliæ;Serbia;RS;45.362793;19.532072;;;
Bulza;Bulza;Romania;RO;45.936789;22.337764;;;
Bulzesd;Bulzeºtii de Sus;Romania;RO;46.298502;22.76985;;;
Bún;Boiu;Romania;RO;46.263844;24.873034;;;
Bunkóc;Bunkovce;Slovakia;SK;48.723252;22.116039;;;
Bunkós;Bunkovce;Slovakia;SK;48.723252;22.116039;;;
Bunya;Bunea Mare;Romania;RO;45.911491;22.098447;;;
Bunyaszekszárd;Bunea Micã;Romania;RO;45.925733;22.094381;;;
Bunyila;Bunila;Romania;RO;45.693983;22.672826;;;
Bunyita;Bunetice;Slovakia;SK;48.861702;21.393459;;;
Burgóhegy;Burgauberg;Austria;AT;47.147961;16.128039;;;
Burjánfalva;Pãuliº;Romania;RO;46.116895;21.592834;;;
Búrszentgyörgy;Borskı Svätı Jur;Slovakia;SK;48.598198;17.074889;;;
Búrszentmiklós;Borskı Mikuláš;Slovakia;SK;48.624827;17.241645;;;
Búrszentpéter;Borskı Peter;Slovakia;SK;48.634915;17.217836;;;
Burzsuk;Burjuc;Romania;RO;45.952238;22.486663;;;
Buság;Buºag;Romania;RO;47.658715;23.427752;;;
Busóc;Bušovce;Slovakia;SK;49.21862;20.487187;;;
Bussa;Bušince;Slovakia;SK;48.173247;19.500255;;;
Bústelek;Búštelek;Slovakia;SK;48.148986;17.385295;;;
